[2024-04-18 15:59:19.909710] $GPRMC,,V,,,,,,,,,,N*53

[2024-04-18 15:59:20.910332] $GPRMC,,V,,,,,,,,,,N*53

[2024-04-18 15:59:21.911193] $GPRMC,,V,,,,,,,,,,N*53

[2024-04-18 15:59:22.909866] $GPRMC,,V,,,,,,,,,,N*53

[2024-04-18 15:59:23.953184] $GPRMC,130117.59,V,,,,,,,,,,N*74

[2024-04-18 15:59:24.359793] $GPRMC,130118.00,V,,,,,,,,,,N*77

[2024-04-18 15:59:25.363399] $GPRMC,130119.00,V,,,,,,,,,,N*76

[2024-04-18 15:59:26.361052] $GPRMC,130120.00,V,,,,,,,,,,N*7C

[2024-04-18 15:59:27.520448] $GPRMC,130121.00,V,,,,,,,,,,N*7D

[2024-04-18 15:59:28.359020] $GPRMC,130122.00,V,,,,,,,,,,N*7E

[2024-04-18 15:59:29.358332] $GPRMC,130123.00,V,,,,,,,180424,,,N*74

[2024-04-18 15:59:30.368347] $GPRMC,130124.00,V,,,,,,,180424,,,N*73

[2024-04-18 15:59:31.368140] $GPRMC,130125.00,V,,,,,,,180424,,,N*72

[2024-04-18 15:59:32.652217] $GPRMC,130126.00,V,,,,,,,180424,,,N*71

[2024-04-18 15:59:33.517816] $GPRMC,130127.00,V,,,,,,,180424,,,N*70

[2024-04-18 15:59:34.369644] $GPRMC,130128.00,V,,,,,,,180424,,,N*7F

[2024-04-18 15:59:35.368526] $GPRMC,130129.00,V,,,,,,,180424,,,N*7E

[2024-04-18 15:59:36.389892] $GPRMC,130130.00,V,,,,,,,180424,,,N*76

[2024-04-18 15:59:37.390266] $GPRMC,130131.00,V,,,,,,,180424,,,N*77

[2024-04-18 15:59:38.396915] $GPRMC,130132.00,V,,,,,,,180424,,,N*74

[2024-04-18 15:59:39.550476] $GPRMC,130133.00,V,,,,,,,180424,,,N*75

[2024-04-18 15:59:40.390241] $GPRMC,130134.00,V,,,,,,,180424,,,N*72

[2024-04-18 15:59:41.390380] $GPRMC,130135.00,V,,,,,,,180424,,,N*73

[2024-04-18 15:59:42.389578] $GPRMC,130136.00,V,,,,,,,180424,,,N*70

[2024-04-18 15:59:43.389561] $GPRMC,130137.00,V,,,,,,,180424,,,N*71

[2024-04-18 15:59:44.395639] $GPRMC,130138.00,V,,,,,,,180424,,,N*7E

[2024-04-18 15:59:45.557402] $GPRMC,130139.00,V,,,,,,,180424,,,N*7F

[2024-04-18 15:59:46.394472] $GPRMC,130140.00,V,,,,,,,180424,,,N*71

[2024-04-18 15:59:47.396001] $GPRMC,130141.00,V,,,,,,,180424,,,N*70

[2024-04-18 15:59:48.391848] $GPRMC,130142.00,V,,,,,,,180424,,,N*73

[2024-04-18 15:59:49.392855] $GPRMC,130143.00,V,,,,,,,180424,,,N*72

[2024-04-18 15:59:50.391967] $GPRMC,130144.00,V,,,,,,,180424,,,N*75

[2024-04-18 15:59:51.566942] $GPRMC,130145.00,V,,,,,,,180424,,,N*74

[2024-04-18 15:59:52.395136] $GPRMC,130146.00,V,,,,,,,180424,,,N*77

[2024-04-18 15:59:53.390840] $GPRMC,130147.00,V,,,,,,,180424,,,N*76

[2024-04-18 15:59:54.393768] $GPRMC,130148.00,V,,,,,,,180424,,,N*79

[2024-04-18 15:59:55.388998] $GPRMC,130149.00,V,,,,,,,180424,,,N*78

[2024-04-18 15:59:56.393919] $GPRMC,130150.00,V,,,,,,,180424,,,N*70

[2024-04-18 15:59:57.554743] $GPRMC,130151.00,V,,,,,,,180424,,,N*71

[2024-04-18 15:59:58.394820] $GPRMC,130152.00,V,,,,,,,180424,,,N*72

[2024-04-18 15:59:59.390515] $GPRMC,130153.00,V,,,,,,,180424,,,N*73

[2024-04-18 16:00:00.390437] $GPRMC,130154.00,V,,,,,,,180424,,,N*74

[2024-04-18 16:00:01.390080] $GPRMC,130155.00,V,,,,,,,180424,,,N*75

[2024-04-18 16:00:02.390554] $GPRMC,130156.00,V,,,,,,,180424,,,N*76

[2024-04-18 16:00:03.560264] $GPRMC,130157.00,V,,,,,,,180424,,,N*77

[2024-04-18 16:00:04.390937] $GPRMC,130158.00,V,,,,,,,180424,,,N*78

[2024-04-18 16:00:05.391991] $GPRMC,130159.00,V,,,,,,,180424,,,N*79

[2024-04-18 16:00:06.396697] $GPRMC,130200.00,V,,,,,,,180424,,,N*76

[2024-04-18 16:00:07.389816] $GPRMC,130201.00,V,,,,,,,180424,,,N*77

[2024-04-18 16:00:08.397971] $GPRMC,130202.00,V,,,,,,,180424,,,N*74

[2024-04-18 16:00:09.508716] $GPRMC,130203.00,V,,,,,,,180424,,,N*75

[2024-04-18 16:00:10.380041] $GPRMC,130204.00,V,,,,,,,180424,,,N*72

[2024-04-18 16:00:11.378496] $GPRMC,130205.00,V,,,,,,,180424,,,N*73

[2024-04-18 16:00:12.376833] $GPRMC,130206.00,V,,,,,,,180424,,,N*70

[2024-04-18 16:00:13.377865] $GPRMC,130207.00,V,,,,,,,180424,,,N*71

[2024-04-18 16:00:14.377549] $GPRMC,130208.00,V,,,,,,,180424,,,N*7E

[2024-04-18 16:00:15.377479] $GPRMC,130209.00,V,,,,,,,180424,,,N*7F

[2024-04-18 16:00:16.381041] $GPRMC,130210.00,V,,,,,,,180424,,,N*77

[2024-04-18 16:00:17.380190] $GPRMC,130211.00,V,,,,,,,180424,,,N*76

[2024-04-18 16:00:18.375936] $GPRMC,130212.00,V,,,,,,,180424,,,N*75

[2024-04-18 16:00:19.380083] $GPRMC,130213.00,V,,,,,,,180424,,,N*74

[2024-04-18 16:00:20.379105] $GPRMC,130214.00,V,,,,,,,180424,,,N*73

[2024-04-18 16:00:21.377488] $GPRMC,130215.00,V,,,,,,,180424,,,N*72

[2024-04-18 16:00:22.383525] $GPRMC,130216.00,V,,,,,,,180424,,,N*71

[2024-04-18 16:00:23.377640] $GPRMC,130217.00,V,,,,,,,180424,,,N*70

[2024-04-18 16:00:24.381178] $GPRMC,130218.00,V,,,,,,,180424,,,N*7F

[2024-04-18 16:00:25.378089] $GPRMC,130219.00,V,,,,,,,180424,,,N*7E

[2024-04-18 16:00:26.378643] $GPRMC,130220.00,V,,,,,,,180424,,,N*74

[2024-04-18 16:00:27.379411] $GPRMC,130221.00,V,,,,,,,180424,,,N*75

[2024-04-18 16:00:28.378914] $GPRMC,130222.00,V,,,,,,,180424,,,N*76

[2024-04-18 16:00:29.380362] $GPRMC,130223.00,V,,,,,,,180424,,,N*77

[2024-04-18 16:00:30.379001] $GPRMC,130224.00,V,,,,,,,180424,,,N*70

[2024-04-18 16:00:31.382589] $GPRMC,130225.00,V,,,,,,,180424,,,N*71

[2024-04-18 16:00:32.380627] $GPRMC,130226.00,V,,,,,,,180424,,,N*72

[2024-04-18 16:00:33.384336] $GPRMC,130227.00,V,,,,,,,180424,,,N*73

[2024-04-18 16:00:34.379057] $GPRMC,130228.00,V,,,,,,,180424,,,N*7C

[2024-04-18 16:00:35.380752] $GPRMC,130229.00,V,,,,,,,180424,,,N*7D

[2024-04-18 16:00:36.380506] $GPRMC,130230.00,V,,,,,,,180424,,,N*75

[2024-04-18 16:00:37.379459] $GPRMC,130231.00,V,,,,,,,180424,,,N*74

[2024-04-18 16:00:38.381553] $GPRMC,130232.00,V,,,,,,,180424,,,N*77

[2024-04-18 16:00:39.378532] $GPRMC,130233.00,V,,,,,,,180424,,,N*76

[2024-04-18 16:00:40.381217] $GPRMC,130234.00,V,,,,,,,180424,,,N*71

[2024-04-18 16:00:41.383086] $GPRMC,130235.00,V,,,,,,,180424,,,N*70

[2024-04-18 16:00:42.379892] $GPRMC,130236.00,V,,,,,,,180424,,,N*73

[2024-04-18 16:00:43.380626] $GPRMC,130237.00,V,,,,,,,180424,,,N*72

[2024-04-18 16:00:44.379673] $GPRMC,130238.00,V,,,,,,,180424,,,N*7D

[2024-04-18 16:00:45.379608] $GPRMC,130239.00,V,,,,,,,180424,,,N*7C

[2024-04-18 16:00:46.381194] $GPRMC,130240.00,V,,,,,,,180424,,,N*72

[2024-04-18 16:00:47.380792] $GPRMC,130241.00,V,,,,,,,180424,,,N*73

[2024-04-18 16:00:48.379582] $GPRMC,130242.00,V,,,,,,,180424,,,N*70

[2024-04-18 16:00:49.379714] $GPRMC,130243.00,V,,,,,,,180424,,,N*71

[2024-04-18 16:00:50.379390] $GPRMC,130244.00,V,,,,,,,180424,,,N*76

[2024-04-18 16:00:51.379499] $GPRMC,130245.00,V,,,,,,,180424,,,N*77

[2024-04-18 16:00:52.383389] $GPRMC,130246.00,V,,,,,,,180424,,,N*74

[2024-04-18 16:00:53.378856] $GPRMC,130247.00,V,,,,,,,180424,,,N*75

[2024-04-18 16:00:54.377715] $GPRMC,130248.00,V,,,,,,,180424,,,N*7A

[2024-04-18 16:00:55.378845] $GPRMC,130249.00,V,,,,,,,180424,,,N*7B

[2024-04-18 16:00:56.378897] $GPRMC,130250.00,V,,,,,,,180424,,,N*73

[2024-04-18 16:00:57.379347] $GPRMC,130251.00,V,,,,,,,180424,,,N*72

[2024-04-18 16:00:58.378116] $GPRMC,130252.00,V,,,,,,,180424,,,N*71

[2024-04-18 16:00:59.381441] $GPRMC,130253.00,V,,,,,,,180424,,,N*70

[2024-04-18 16:01:00.377862] $GPRMC,130254.00,V,,,,,,,180424,,,N*77

[2024-04-18 16:01:01.381465] $GPRMC,130255.00,V,,,,,,,180424,,,N*76

[2024-04-18 16:01:02.380919] $GPRMC,130256.00,V,,,,,,,180424,,,N*75

[2024-04-18 16:01:03.379150] $GPRMC,130257.00,V,,,,,,,180424,,,N*74

[2024-04-18 16:01:04.378959] $GPRMC,130258.00,V,,,,,,,180424,,,N*7B

[2024-04-18 16:01:05.379908] $GPRMC,130259.00,V,,,,,,,180424,,,N*7A

[2024-04-18 16:01:06.377986] $GPRMC,130300.00,V,,,,,,,180424,,,N*77

[2024-04-18 16:01:07.379758] $GPRMC,130301.00,V,,,,,,,180424,,,N*76

[2024-04-18 16:01:08.379292] $GPRMC,130302.00,V,,,,,,,180424,,,N*75

[2024-04-18 16:01:09.381069] $GPRMC,130303.00,V,,,,,,,180424,,,N*74

[2024-04-18 16:01:10.381319] $GPRMC,130304.00,V,,,,,,,180424,,,N*73

[2024-04-18 16:01:11.381892] $GPRMC,130305.00,V,,,,,,,180424,,,N*72

[2024-04-18 16:01:12.381513] $GPRMC,130306.00,V,,,,,,,180424,,,N*71

[2024-04-18 16:01:13.379401] $GPRMC,130307.00,V,,,,,,,180424,,,N*70

[2024-04-18 16:01:14.378587] $GPRMC,130308.00,V,,,,,,,180424,,,N*7F

[2024-04-18 16:01:15.379791] $GPRMC,130309.00,V,,,,,,,180424,,,N*7E

[2024-04-18 16:01:16.380110] $GPRMC,130310.00,V,,,,,,,180424,,,N*76

[2024-04-18 16:01:17.381904] $GPRMC,130311.00,V,,,,,,,180424,,,N*77

[2024-04-18 16:01:18.381318] $GPRMC,130312.00,V,,,,,,,180424,,,N*74

[2024-04-18 16:01:19.382103] $GPRMC,130313.00,V,,,,,,,180424,,,N*75

[2024-04-18 16:01:20.381247] $GPRMC,130314.00,V,,,,,,,180424,,,N*72

[2024-04-18 16:01:21.381530] $GPRMC,130315.00,V,,,,,,,180424,,,N*73

[2024-04-18 16:01:22.388099] $GPRMC,130316.00,V,,,,,,,180424,,,N*70

[2024-04-18 16:01:23.382396] $GPRMC,130317.00,V,,,,,,,180424,,,N*71

[2024-04-18 16:01:24.384320] $GPRMC,130318.00,V,,,,,,,180424,,,N*7E

[2024-04-18 16:01:25.380965] $GPRMC,130319.00,V,,,,,,,180424,,,N*7F

[2024-04-18 16:01:26.381205] $GPRMC,130320.00,V,,,,,,,180424,,,N*75

[2024-04-18 16:01:27.381821] $GPRMC,130321.00,V,,,,,,,180424,,,N*74

[2024-04-18 16:01:28.379879] $GPRMC,130322.00,V,,,,,,,180424,,,N*77

[2024-04-18 16:01:29.381544] $GPRMC,130323.00,V,,,,,,,180424,,,N*76

[2024-04-18 16:01:30.380042] $GPRMC,130324.00,V,,,,,,,180424,,,N*71

[2024-04-18 16:01:31.379583] $GPRMC,130325.00,V,,,,,,,180424,,,N*70

[2024-04-18 16:01:32.380614] $GPRMC,130326.00,V,,,,,,,180424,,,N*73

[2024-04-18 16:01:33.382305] $GPRMC,130327.00,V,,,,,,,180424,,,N*72

[2024-04-18 16:01:34.379352] $GPRMC,130328.00,V,,,,,,,180424,,,N*7D

[2024-04-18 16:01:35.379632] $GPRMC,130329.00,V,,,,,,,180424,,,N*7C

[2024-04-18 16:01:36.381078] $GPRMC,130330.00,V,,,,,,,180424,,,N*74

[2024-04-18 16:01:37.380985] $GPRMC,130331.00,V,,,,,,,180424,,,N*75

[2024-04-18 16:01:38.379849] $GPRMC,130332.00,V,,,,,,,180424,,,N*76

[2024-04-18 16:01:39.380527] $GPRMC,130333.00,V,,,,,,,180424,,,N*77

[2024-04-18 16:01:40.381640] $GPRMC,130334.00,V,,,,,,,180424,,,N*70

[2024-04-18 16:01:41.381405] $GPRMC,130335.00,V,,,,,,,180424,,,N*71

[2024-04-18 16:01:42.381185] $GPRMC,130336.00,V,,,,,,,180424,,,N*72

[2024-04-18 16:01:43.383213] $GPRMC,130337.00,V,,,,,,,180424,,,N*73

[2024-04-18 16:01:44.382337] $GPRMC,130338.00,V,,,,,,,180424,,,N*7C

[2024-04-18 16:01:45.381199] $GPRMC,130339.00,V,,,,,,,180424,,,N*7D

[2024-04-18 16:01:46.382273] $GPRMC,130340.00,V,,,,,,,180424,,,N*73

[2024-04-18 16:01:47.383865] $GPRMC,130341.00,V,,,,,,,180424,,,N*72

[2024-04-18 16:01:48.381341] $GPRMC,130342.00,V,,,,,,,180424,,,N*71

[2024-04-18 16:01:49.381712] $GPRMC,130343.00,V,,,,,,,180424,,,N*70

[2024-04-18 16:01:50.382198] $GPRMC,130344.00,V,,,,,,,180424,,,N*77

[2024-04-18 16:01:51.383403] $GPRMC,130345.00,V,,,,,,,180424,,,N*76

[2024-04-18 16:01:52.386530] $GPRMC,130346.00,V,,,,,,,180424,,,N*75

[2024-04-18 16:01:53.385054] $GPRMC,130347.00,V,,,,,,,180424,,,N*74

[2024-04-18 16:01:54.384635] $GPRMC,130348.00,V,,,,,,,180424,,,N*7B

[2024-04-18 16:01:55.381851] $GPRMC,130349.00,V,,,,,,,180424,,,N*7A

[2024-04-18 16:01:56.379696] $GPRMC,130350.00,V,,,,,,,180424,,,N*72

[2024-04-18 16:01:57.380682] $GPRMC,130351.00,V,,,,,,,180424,,,N*73

[2024-04-18 16:01:58.380347] $GPRMC,130352.00,V,,,,,,,180424,,,N*70

[2024-04-18 16:01:59.380657] $GPRMC,130353.00,V,,,,,,,180424,,,N*71

[2024-04-18 16:02:00.380294] $GPRMC,130354.00,V,,,,,,,180424,,,N*76

[2024-04-18 16:02:01.381972] $GPRMC,130355.00,V,,,,,,,180424,,,N*77

[2024-04-18 16:02:02.382987] $GPRMC,130356.00,V,,,,,,,180424,,,N*74

[2024-04-18 16:02:03.384426] $GPRMC,130357.00,V,,,,,,,180424,,,N*75

[2024-04-18 16:02:04.381624] $GPRMC,130358.00,V,,,,,,,180424,,,N*7A

[2024-04-18 16:02:05.380373] $GPRMC,130359.00,V,,,,,,,180424,,,N*7B

[2024-04-18 16:02:06.379606] $GPRMC,130400.00,V,,,,,,,180424,,,N*70

[2024-04-18 16:02:07.380054] $GPRMC,130401.00,V,,,,,,,180424,,,N*71

[2024-04-18 16:02:08.380094] $GPRMC,130402.00,V,,,,,,,180424,,,N*72

[2024-04-18 16:02:09.383303] $GPRMC,130403.00,V,,,,,,,180424,,,N*73

[2024-04-18 16:02:10.379477] $GPRMC,130404.00,V,,,,,,,180424,,,N*74

[2024-04-18 16:02:11.379460] $GPRMC,130405.00,V,,,,,,,180424,,,N*75

[2024-04-18 16:02:12.379899] $GPRMC,130406.00,V,,,,,,,180424,,,N*76

[2024-04-18 16:02:13.378761] $GPRMC,130407.00,V,,,,,,,180424,,,N*77

[2024-04-18 16:02:14.379969] $GPRMC,130408.00,V,,,,,,,180424,,,N*78

[2024-04-18 16:02:15.384126] $GPRMC,130409.00,V,,,,,,,180424,,,N*79

[2024-04-18 16:02:16.380252] $GPRMC,130410.00,V,,,,,,,180424,,,N*71

[2024-04-18 16:02:17.380813] $GPRMC,130411.00,V,,,,,,,180424,,,N*70

[2024-04-18 16:02:18.380038] $GPRMC,130412.00,V,,,,,,,180424,,,N*73

[2024-04-18 16:02:19.380745] $GPRMC,130413.00,V,,,,,,,180424,,,N*72

[2024-04-18 16:02:20.379885] $GPRMC,130414.00,V,,,,,,,180424,,,N*75

[2024-04-18 16:02:21.380618] $GPRMC,130415.00,V,,,,,,,180424,,,N*74

[2024-04-18 16:02:22.390596] $GPRMC,130416.00,V,,,,,,,180424,,,N*77

[2024-04-18 16:02:23.379310] $GPRMC,130417.00,V,,,,,,,180424,,,N*76

[2024-04-18 16:02:24.385308] $GPRMC,130418.00,V,,,,,,,180424,,,N*79

[2024-04-18 16:02:25.382168] $GPRMC,130419.00,V,,,,,,,180424,,,N*78

[2024-04-18 16:02:26.380050] $GPRMC,130420.00,V,,,,,,,180424,,,N*72

[2024-04-18 16:02:27.380268] $GPRMC,130421.00,V,,,,,,,180424,,,N*73

[2024-04-18 16:02:28.380917] $GPRMC,130422.00,V,,,,,,,180424,,,N*70

[2024-04-18 16:02:29.381759] $GPRMC,130423.00,V,,,,,,,180424,,,N*71

[2024-04-18 16:02:30.382108] $GPRMC,130424.00,V,,,,,,,180424,,,N*76

[2024-04-18 16:02:31.382068] $GPRMC,130425.00,V,,,,,,,180424,,,N*77

[2024-04-18 16:02:32.382213] $GPRMC,130426.00,V,,,,,,,180424,,,N*74

[2024-04-18 16:02:33.382855] $GPRMC,130427.00,V,,,,,,,180424,,,N*75

[2024-04-18 16:02:34.379107] $GPRMC,130428.00,V,,,,,,,180424,,,N*7A

[2024-04-18 16:02:35.381250] $GPRMC,130429.00,V,,,,,,,180424,,,N*7B

[2024-04-18 16:02:36.379354] $GPRMC,130430.00,V,,,,,,,180424,,,N*73

[2024-04-18 16:02:37.381888] $GPRMC,130431.00,V,,,,,,,180424,,,N*72

[2024-04-18 16:02:38.381470] $GPRMC,130432.00,V,,,,,,,180424,,,N*71

[2024-04-18 16:02:39.381675] $GPRMC,130433.00,V,,,,,,,180424,,,N*70

[2024-04-18 16:02:40.382314] $GPRMC,130434.00,V,,,,,,,180424,,,N*77

[2024-04-18 16:02:41.380590] $GPRMC,130435.00,V,,,,,,,180424,,,N*76

[2024-04-18 16:02:42.380271] $GPRMC,130436.00,V,,,,,,,180424,,,N*75

[2024-04-18 16:02:43.381863] $GPRMC,130437.00,V,,,,,,,180424,,,N*74

[2024-04-18 16:02:44.378988] $GPRMC,130438.00,V,,,,,,,180424,,,N*7B

[2024-04-18 16:02:45.383617] $GPRMC,130439.00,V,,,,,,,180424,,,N*7A

[2024-04-18 16:02:46.382078] $GPRMC,130440.00,V,,,,,,,180424,,,N*74

[2024-04-18 16:02:47.379673] $GPRMC,130441.00,V,,,,,,,180424,,,N*75

[2024-04-18 16:02:48.379180] $GPRMC,130442.00,V,,,,,,,180424,,,N*76

[2024-04-18 16:02:49.380157] $GPRMC,130443.00,V,,,,,,,180424,,,N*77

[2024-04-18 16:02:50.381314] $GPRMC,130444.00,V,,,,,,,180424,,,N*70

[2024-04-18 16:02:51.382717] $GPRMC,130445.00,V,,,,,,,180424,,,N*71

[2024-04-18 16:02:52.386234] $GPRMC,130446.00,V,,,,,,,180424,,,N*72

[2024-04-18 16:02:53.382333] $GPRMC,130447.00,V,,,,,,,180424,,,N*73

[2024-04-18 16:02:54.382163] $GPRMC,130448.00,V,,,,,,,180424,,,N*7C

[2024-04-18 16:02:55.385337] $GPRMC,130449.00,V,,,,,,,180424,,,N*7D

[2024-04-18 16:02:56.380721] $GPRMC,130450.00,V,,,,,,,180424,,,N*75

[2024-04-18 16:02:57.383187] $GPRMC,130451.00,V,,,,,,,180424,,,N*74

[2024-04-18 16:02:58.382433] $GPRMC,130452.00,V,,,,,,,180424,,,N*77

[2024-04-18 16:02:59.382028] $GPRMC,130453.00,V,,,,,,,180424,,,N*76

[2024-04-18 16:03:00.381321] $GPRMC,130454.00,V,,,,,,,180424,,,N*71

[2024-04-18 16:03:01.382691] $GPRMC,130455.00,V,,,,,,,180424,,,N*70

[2024-04-18 16:03:02.381980] $GPRMC,130456.00,V,,,,,,,180424,,,N*73

[2024-04-18 16:03:03.382869] $GPRMC,130457.00,V,,,,,,,180424,,,N*72

[2024-04-18 16:03:04.384636] $GPRMC,130458.00,V,,,,,,,180424,,,N*7D

[2024-04-18 16:03:05.382943] $GPRMC,130459.00,V,,,,,,,180424,,,N*7C

[2024-04-18 16:03:06.385575] $GPRMC,130500.00,V,,,,,,,180424,,,N*71

[2024-04-18 16:03:07.385261] $GPRMC,130501.00,V,,,,,,,180424,,,N*70

[2024-04-18 16:03:08.380911] $GPRMC,130502.00,V,,,,,,,180424,,,N*73

[2024-04-18 16:03:09.383299] $GPRMC,130503.00,V,,,,,,,180424,,,N*72

[2024-04-18 16:03:10.379694] $GPRMC,130504.00,V,,,,,,,180424,,,N*75

[2024-04-18 16:03:11.380386] $GPRMC,130505.00,V,,,,,,,180424,,,N*74

[2024-04-18 16:03:12.380662] $GPRMC,130506.00,V,,,,,,,180424,,,N*77

[2024-04-18 16:03:13.381592] $GPRMC,130507.00,V,,,,,,,180424,,,N*76

[2024-04-18 16:03:14.382471] $GPRMC,130508.00,V,,,,,,,180424,,,N*79

[2024-04-18 16:03:15.382955] $GPRMC,130509.00,V,,,,,,,180424,,,N*78

[2024-04-18 16:03:16.384994] $GPRMC,130510.00,V,,,,,,,180424,,,N*70

[2024-04-18 16:03:17.384870] $GPRMC,130511.00,V,,,,,,,180424,,,N*71

[2024-04-18 16:03:18.382171] $GPRMC,130512.00,V,,,,,,,180424,,,N*72

[2024-04-18 16:03:19.383168] $GPRMC,130513.00,V,,,,,,,180424,,,N*73

[2024-04-18 16:03:20.382069] $GPRMC,130514.00,V,,,,,,,180424,,,N*74

[2024-04-18 16:03:21.383181] $GPRMC,130515.00,V,,,,,,,180424,,,N*75

[2024-04-18 16:03:22.388009] $GPRMC,130516.00,V,,,,,,,180424,,,N*76

[2024-04-18 16:03:23.382805] $GPRMC,130517.00,V,,,,,,,180424,,,N*77

[2024-04-18 16:03:24.385726] $GPRMC,130518.00,V,,,,,,,180424,,,N*78

[2024-04-18 16:03:25.382735] $GPRMC,130519.00,V,,,,,,,180424,,,N*79

[2024-04-18 16:03:26.381971] $GPRMC,130520.00,V,,,,,,,180424,,,N*73

[2024-04-18 16:03:27.382246] $GPRMC,130521.00,V,,,,,,,180424,,,N*72

[2024-04-18 16:03:28.384026] $GPRMC,130522.00,V,,,,,,,180424,,,N*71

[2024-04-18 16:03:29.383106] $GPRMC,130523.00,V,,,,,,,180424,,,N*70

[2024-04-18 16:03:30.381887] $GPRMC,130524.00,V,,,,,,,180424,,,N*77

[2024-04-18 16:03:31.382693] $GPRMC,130525.00,V,,,,,,,180424,,,N*76

[2024-04-18 16:03:32.381841] $GPRMC,130526.00,V,,,,,,,180424,,,N*75

[2024-04-18 16:03:33.383101] $GPRMC,130527.00,V,,,,,,,180424,,,N*74

[2024-04-18 16:03:34.381987] $GPRMC,130528.00,V,,,,,,,180424,,,N*7B

[2024-04-18 16:03:35.384379] $GPRMC,130529.00,V,,,,,,,180424,,,N*7A

[2024-04-18 16:03:36.382855] $GPRMC,130530.00,V,,,,,,,180424,,,N*72

[2024-04-18 16:03:37.384214] $GPRMC,130531.00,V,,,,,,,180424,,,N*73

[2024-04-18 16:03:38.383661] $GPRMC,130532.00,V,,,,,,,180424,,,N*70

[2024-04-18 16:03:39.383524] $GPRMC,130533.00,V,,,,,,,180424,,,N*71

[2024-04-18 16:03:40.384716] $GPRMC,130534.00,V,,,,,,,180424,,,N*76

[2024-04-18 16:03:41.385921] $GPRMC,130535.00,V,,,,,,,180424,,,N*77

[2024-04-18 16:03:42.385249] $GPRMC,130536.00,V,,,,,,,180424,,,N*74

[2024-04-18 16:03:43.386383] $GPRMC,130537.00,V,,,,,,,180424,,,N*75

[2024-04-18 16:03:44.386378] $GPRMC,130538.00,V,,,,,,,180424,,,N*7A

[2024-04-18 16:03:45.384284] $GPRMC,130539.00,V,,,,,,,180424,,,N*7B

[2024-04-18 16:03:46.387869] $GPRMC,130540.00,V,,,,,,,180424,,,N*75

[2024-04-18 16:03:47.384157] $GPRMC,130541.00,V,,,,,,,180424,,,N*74

[2024-04-18 16:03:48.385428] $GPRMC,130542.00,V,,,,,,,180424,,,N*77

[2024-04-18 16:03:49.386545] $GPRMC,130543.00,V,,,,,,,180424,,,N*76

[2024-04-18 16:03:50.385970] $GPRMC,130544.00,V,,,,,,,180424,,,N*71

[2024-04-18 16:03:51.386906] $GPRMC,130545.00,V,,,,,,,180424,,,N*70

[2024-04-18 16:03:52.391005] $GPRMC,130546.00,V,,,,,,,180424,,,N*73

[2024-04-18 16:03:53.385224] $GPRMC,130547.00,V,,,,,,,180424,,,N*72

[2024-04-18 16:03:54.384319] $GPRMC,130548.00,V,,,,,,,180424,,,N*7D

[2024-04-18 16:03:55.387038] $GPRMC,130549.00,V,,,,,,,180424,,,N*7C

[2024-04-18 16:03:56.386248] $GPRMC,130550.00,V,,,,,,,180424,,,N*74

[2024-04-18 16:03:57.384496] $GPRMC,130551.00,V,,,,,,,180424,,,N*75

[2024-04-18 16:03:58.386610] $GPRMC,130552.00,V,,,,,,,180424,,,N*76

[2024-04-18 16:03:59.387525] $GPRMC,130553.00,V,,,,,,,180424,,,N*77

[2024-04-18 16:04:00.384116] $GPRMC,130554.00,V,,,,,,,180424,,,N*70

[2024-04-18 16:04:01.385201] $GPRMC,130555.00,V,,,,,,,180424,,,N*71

[2024-04-18 16:04:02.386058] $GPRMC,130556.00,V,,,,,,,180424,,,N*72

[2024-04-18 16:04:03.385320] $GPRMC,130557.00,V,,,,,,,180424,,,N*73

[2024-04-18 16:04:04.383974] $GPRMC,130558.00,V,,,,,,,180424,,,N*7C

[2024-04-18 16:04:05.386429] $GPRMC,130559.00,V,,,,,,,180424,,,N*7D

[2024-04-18 16:04:06.385783] $GPRMC,130600.00,V,,,,,,,180424,,,N*72

[2024-04-18 16:04:07.385692] $GPRMC,130601.00,V,,,,,,,180424,,,N*73

[2024-04-18 16:04:08.386189] $GPRMC,130602.00,V,,,,,,,180424,,,N*70

[2024-04-18 16:04:09.388371] $GPRMC,130603.00,V,,,,,,,180424,,,N*71

[2024-04-18 16:04:10.384364] $GPRMC,130604.00,V,,,,,,,180424,,,N*76

[2024-04-18 16:04:11.385656] $GPRMC,130605.00,V,,,,,,,180424,,,N*77

[2024-04-18 16:04:12.384713] $GPRMC,130606.00,V,,,,,,,180424,,,N*74

[2024-04-18 16:04:13.383901] $GPRMC,130607.00,V,,,,,,,180424,,,N*75

[2024-04-18 16:04:14.384972] $GPRMC,130608.00,V,,,,,,,180424,,,N*7A

[2024-04-18 16:04:15.384657] $GPRMC,130609.00,V,,,,,,,180424,,,N*7B

[2024-04-18 16:04:16.384535] $GPRMC,130607.00,V,,,,,,,180424,,,N*75

[2024-04-18 16:04:17.383249] $GPRMC,130608.00,V,,,,,,,180424,,,N*7A

[2024-04-18 16:04:18.382719] $GPRMC,130609.00,V,,,,,,,180424,,,N*7B

[2024-04-18 16:04:19.384738] $GPRMC,130610.00,V,,,,,,,180424,,,N*73

[2024-04-18 16:04:20.384026] $GPRMC,130611.00,V,,,,,,,180424,,,N*72

[2024-04-18 16:04:21.384079] $GPRMC,130612.00,V,,,,,,,180424,,,N*71

[2024-04-18 16:04:22.391521] $GPRMC,130613.00,V,,,,,,,180424,,,N*70

[2024-04-18 16:04:23.388666] $GPRMC,130614.00,V,,,,,,,180424,,,N*77

[2024-04-18 16:04:24.390004] $GPRMC,130615.00,V,,,,,,,180424,,,N*76

[2024-04-18 16:04:25.384902] $GPRMC,130616.00,V,,,,,,,180424,,,N*75

[2024-04-18 16:04:26.385720] $GPRMC,130617.00,V,,,,,,,180424,,,N*74

[2024-04-18 16:04:27.388620] $GPRMC,130618.00,V,,,,,,,180424,,,N*7B

[2024-04-18 16:04:28.386285] $GPRMC,130619.00,V,,,,,,,180424,,,N*7A

[2024-04-18 16:04:29.387465] $GPRMC,130620.00,V,,,,,,,180424,,,N*70

[2024-04-18 16:04:30.384471] $GPRMC,130621.00,V,,,,,,,180424,,,N*71

[2024-04-18 16:04:31.387692] $GPRMC,130622.00,V,,,,,,,180424,,,N*72

[2024-04-18 16:04:32.387125] $GPRMC,130623.00,V,,,,,,,180424,,,N*73

[2024-04-18 16:04:33.384772] $GPRMC,130624.00,V,,,,,,,180424,,,N*74

[2024-04-18 16:04:34.386837] $GPRMC,130625.00,V,,,,,,,180424,,,N*75

[2024-04-18 16:04:35.383219] $GPRMC,130626.00,V,,,,,,,180424,,,N*76

[2024-04-18 16:04:36.385090] $GPRMC,130627.00,V,,,,,,,180424,,,N*77

[2024-04-18 16:04:37.386642] $GPRMC,130628.00,V,,,,,,,180424,,,N*78

[2024-04-18 16:04:38.386753] $GPRMC,130629.00,V,,,,,,,180424,,,N*79

[2024-04-18 16:04:39.386825] $GPRMC,130630.00,V,,,,,,,180424,,,N*71

[2024-04-18 16:04:40.383346] $GPRMC,130631.00,V,,,,,,,180424,,,N*70

[2024-04-18 16:04:41.385003] $GPRMC,130632.00,V,,,,,,,180424,,,N*73

[2024-04-18 16:04:42.384025] $GPRMC,130633.00,V,,,,,,,180424,,,N*72

[2024-04-18 16:04:43.385215] $GPRMC,130634.00,V,,,,,,,180424,,,N*75

[2024-04-18 16:04:44.384440] $GPRMC,130635.00,V,,,,,,,180424,,,N*74

[2024-04-18 16:04:45.385436] $GPRMC,130636.00,V,,,,,,,180424,,,N*77

[2024-04-18 16:04:46.384711] $GPRMC,130637.00,V,,,,,,,180424,,,N*76

[2024-04-18 16:04:47.384710] $GPRMC,130638.00,V,,,,,,,180424,,,N*79

[2024-04-18 16:04:48.384063] $GPRMC,130639.00,V,,,,,,,180424,,,N*78

[2024-04-18 16:04:49.384122] $GPRMC,130640.00,V,,,,,,,180424,,,N*76

[2024-04-18 16:04:50.388348] $GPRMC,130641.00,V,,,,,,,180424,,,N*77

[2024-04-18 16:04:51.385067] $GPRMC,130642.00,V,,,,,,,180424,,,N*74

[2024-04-18 16:04:52.393771] $GPRMC,130643.00,V,,,,,,,180424,,,N*75

[2024-04-18 16:04:53.387133] $GPRMC,130644.00,V,,,,,,,180424,,,N*72

[2024-04-18 16:04:54.385227] $GPRMC,130645.00,V,,,,,,,180424,,,N*73

[2024-04-18 16:04:55.387652] $GPRMC,130646.00,V,,,,,,,180424,,,N*70

[2024-04-18 16:04:56.384399] $GPRMC,130647.00,V,,,,,,,180424,,,N*71

[2024-04-18 16:04:57.387031] $GPRMC,130648.00,V,,,,,,,180424,,,N*7E

[2024-04-18 16:04:58.384510] $GPRMC,130649.00,V,,,,,,,180424,,,N*7F

[2024-04-18 16:04:59.386464] $GPRMC,130650.00,V,,,,,,,180424,,,N*77

[2024-04-18 16:05:00.385068] $GPRMC,130651.00,V,,,,,,,180424,,,N*76

[2024-04-18 16:05:01.383382] $GPRMC,130652.00,V,,,,,,,180424,,,N*75

[2024-04-18 16:05:02.386626] $GPRMC,130653.00,V,,,,,,,180424,,,N*74

[2024-04-18 16:05:03.385130] $GPRMC,130654.00,V,,,,,,,180424,,,N*73

[2024-04-18 16:05:04.439812] $GPRMC,130655.00,V,,,,,,,180424,,,N*72

[2024-04-18 16:05:05.385212] $GPRMC,130656.00,V,,,,,,,180424,,,N*71

[2024-04-18 16:05:06.383555] $GPRMC,130657.00,V,,,,,,,180424,,,N*70

[2024-04-18 16:05:07.386219] $GPRMC,130658.00,V,,,,,,,180424,,,N*7F

[2024-04-18 16:05:08.383830] $GPRMC,130659.00,V,,,,,,,180424,,,N*7E

[2024-04-18 16:05:09.386344] $GPRMC,130700.00,V,,,,,,,180424,,,N*73

[2024-04-18 16:05:10.383554] $GPRMC,130701.00,V,,,,,,,180424,,,N*72

[2024-04-18 16:05:11.386845] $GPRMC,130702.00,V,,,,,,,180424,,,N*71

[2024-04-18 16:05:12.417074] $GPRMC,130703.00,A,3825.58040,N,02708.09582,E,0.129,,180424,,,A*79

[2024-04-18 16:05:13.422133] $GPRMC,130704.00,A,3825.58072,N,02708.09588,E,0.668,,180424,,,A*77

[2024-04-18 16:05:14.419757] $GPRMC,130705.00,A,3825.58115,N,02708.09609,E,0.494,,180424,,,A*7D

[2024-04-18 16:05:15.417444] $GPRMC,130706.00,A,3825.58148,N,02708.09618,E,0.445,,180424,,,A*7A

[2024-04-18 16:05:16.417743] $GPRMC,130707.00,A,3825.58205,N,02708.09693,E,0.629,,180424,,,A*7A

[2024-04-18 16:05:17.420881] $GPRMC,130708.00,A,3825.58263,N,02708.09763,E,0.244,,180424,,,A*74

[2024-04-18 16:05:18.419087] $GPRMC,130709.00,A,3825.58317,N,02708.09818,E,0.058,,180424,,,A*7B

[2024-04-18 16:05:19.421978] $GPRMC,130710.00,A,3825.58359,N,02708.09855,E,0.082,,180424,,,A*77

[2024-04-18 16:05:20.421991] $GPRMC,130711.00,A,3825.58392,N,02708.09889,E,0.075,,180424,,,A*78

[2024-04-18 16:05:21.419861] $GPRMC,130712.00,A,3825.58424,N,02708.09914,E,0.102,,180424,,,A*75

[2024-04-18 16:05:22.424464] $GPRMC,130713.00,A,3825.58455,N,02708.09943,E,0.678,,180424,,,A*7A

[2024-04-18 16:05:23.420844] $GPRMC,130714.00,A,3825.58481,N,02708.09958,E,0.599,,180424,,,A*72

[2024-04-18 16:05:24.423092] $GPRMC,130715.00,A,3825.58508,N,02708.09978,E,0.312,,180424,,,A*74

[2024-04-18 16:05:25.418674] $GPRMC,130716.00,A,3825.58534,N,02708.09992,E,0.212,,180424,,,A*7D

[2024-04-18 16:05:26.420561] $GPRMC,130717.00,A,3825.58559,N,02708.10004,E,0.136,,180424,,,A*7C

[2024-04-18 16:05:27.422876] $GPRMC,130718.00,A,3825.58582,N,02708.10015,E,0.314,,180424,,,A*77

[2024-04-18 16:05:28.419938] $GPRMC,130719.00,A,3825.58602,N,02708.10034,E,0.338,,180424,,,A*70

[2024-04-18 16:05:29.419674] $GPRMC,130720.00,A,3825.58603,N,02708.10028,E,0.185,,180424,,,A*72

[2024-04-18 16:05:30.418497] $GPRMC,130721.00,A,3825.58596,N,02708.10017,E,0.171,,180424,,,A*7B

[2024-04-18 16:05:31.418770] $GPRMC,130722.00,A,3825.58598,N,02708.10024,E,0.586,,180424,,,A*7A

[2024-04-18 16:05:32.416992] $GPRMC,130723.00,A,3825.58589,N,02708.10007,E,0.498,,180424,,,A*74

[2024-04-18 16:05:33.417757] $GPRMC,130724.00,A,3825.58593,N,02708.10006,E,0.600,,180424,,,A*7A

[2024-04-18 16:05:34.416916] $GPRMC,130725.00,A,3825.58602,N,02708.10020,E,0.520,,180424,,,A*75

[2024-04-18 16:05:35.419646] $GPRMC,130726.00,A,3825.58606,N,02708.10035,E,0.312,,180424,,,A*71

[2024-04-18 16:05:36.418975] $GPRMC,130727.00,A,3825.58602,N,02708.10037,E,0.256,,180424,,,A*77

[2024-04-18 16:05:37.417645] $GPRMC,130728.00,A,3825.58609,N,02708.10060,E,0.327,,180424,,,A*76

[2024-04-18 16:05:38.419480] $GPRMC,130729.00,A,3825.58579,N,02708.10035,E,0.521,,180424,,,A*73

[2024-04-18 16:05:39.418791] $GPRMC,130730.00,A,3825.58599,N,02708.10097,E,0.322,,180424,,,A*78

[2024-04-18 16:05:40.417741] $GPRMC,130731.00,A,3825.58597,N,02708.10126,E,0.350,,180424,,,A*79

[2024-04-18 16:05:41.418597] $GPRMC,130732.00,A,3825.58603,N,02708.10160,E,0.458,,180424,,,A*79

[2024-04-18 16:05:42.416949] $GPRMC,130733.00,A,3825.58613,N,02708.10186,E,0.492,,180424,,,A*77

[2024-04-18 16:05:43.417890] $GPRMC,130734.00,A,3825.58587,N,02708.10168,E,0.453,,180424,,,A*73

[2024-04-18 16:05:44.421273] $GPRMC,130735.00,A,3825.58610,N,02708.10220,E,0.737,,180424,,,A*71

[2024-04-18 16:05:45.421588] $GPRMC,130736.00,A,3825.58635,N,02708.10270,E,0.608,,180424,,,A*7D

[2024-04-18 16:05:46.419002] $GPRMC,130737.00,A,3825.58642,N,02708.10292,E,0.540,,180424,,,A*7F

[2024-04-18 16:05:47.420099] $GPRMC,130738.00,A,3825.58652,N,02708.10316,E,0.581,,180424,,,A*71

[2024-04-18 16:05:48.421826] $GPRMC,130739.00,A,3825.58662,N,02708.10336,E,0.732,,180424,,,A*7B

[2024-04-18 16:05:49.385999] $GPRMC,130740.00,V,,,,,,,180424,,,N*77

[2024-04-18 16:05:50.386982] $GPRMC,130741.00,V,,,,,,,180424,,,N*76

[2024-04-18 16:05:51.385883] $GPRMC,130742.00,V,,,,,,,180424,,,N*75

[2024-04-18 16:05:52.388890] $GPRMC,130743.00,V,,,,,,,180424,,,N*74

[2024-04-18 16:05:53.386270] $GPRMC,130744.00,V,,,,,,,180424,,,N*73

[2024-04-18 16:05:54.421485] $GPRMC,130745.00,A,3825.58407,N,02708.10303,E,0.500,,180424,,,A*74

[2024-04-18 16:05:55.420822] $GPRMC,130746.00,A,3825.58343,N,02708.10364,E,0.644,,180424,,,A*72

[2024-04-18 16:05:56.417335] $GPRMC,130747.00,A,3825.58282,N,02708.10392,E,0.478,,180424,,,A*7B

[2024-04-18 16:05:57.420493] $GPRMC,130748.00,A,3825.58235,N,02708.10412,E,0.448,,180424,,,A*74

[2024-04-18 16:05:58.420254] $GPRMC,130749.00,A,3825.58220,N,02708.10411,E,0.544,,180424,,,A*7F

[2024-04-18 16:05:59.419103] $GPRMC,130750.00,A,3825.58172,N,02708.10375,E,0.526,,180424,,,A*72

[2024-04-18 16:06:00.418478] $GPRMC,130751.00,A,3825.58145,N,02708.10356,E,0.519,,180424,,,A*7A

[2024-04-18 16:06:01.421164] $GPRMC,130752.00,A,3825.58114,N,02708.10350,E,0.576,,180424,,,A*72

[2024-04-18 16:06:02.419366] $GPRMC,130753.00,A,3825.58077,N,02708.10344,E,0.438,,180424,,,A*79

[2024-04-18 16:06:03.420968] $GPRMC,130754.00,A,3825.58062,N,02708.10335,E,0.602,,180424,,,A*77

[2024-04-18 16:06:04.422317] $GPRMC,130755.00,A,3825.58063,N,02708.10298,E,0.486,,180424,,,A*7F

[2024-04-18 16:06:05.422133] $GPRMC,130756.00,A,3825.58062,N,02708.10258,E,0.543,,180424,,,A*79

[2024-04-18 16:06:06.424260] $GPRMC,130757.00,A,3825.58044,N,02708.10202,E,0.451,,180424,,,A*71

[2024-04-18 16:06:07.422356] $GPRMC,130758.00,A,3825.58025,N,02708.10148,E,0.351,,180424,,,A*73

[2024-04-18 16:06:08.423303] $GPRMC,130759.00,A,3825.58024,N,02708.10117,E,0.440,,180424,,,A*7E

[2024-04-18 16:06:09.423332] $GPRMC,130800.00,A,3825.58009,N,02708.10063,E,0.425,,180424,,,A*73

[2024-04-18 16:06:10.420525] $GPRMC,130801.00,A,3825.57991,N,02708.10007,E,0.290,,180424,,,A*7F

[2024-04-18 16:06:11.421263] $GPRMC,130802.00,A,3825.57971,N,02708.09953,E,0.288,,180424,,,A*7B

[2024-04-18 16:06:12.419409] $GPRMC,130803.00,A,3825.57952,N,02708.09908,E,0.615,,180424,,,A*75

[2024-04-18 16:06:13.421612] $GPRMC,130804.00,A,3825.57942,N,02708.09860,E,0.462,,180424,,,A*7E

[2024-04-18 16:06:14.419013] $GPRMC,130805.00,A,3825.57928,N,02708.09814,E,0.412,,180424,,,A*77

[2024-04-18 16:06:15.422415] $GPRMC,130806.00,A,3825.57924,N,02708.09776,E,0.189,,180424,,,A*74

[2024-04-18 16:06:16.422801] $GPRMC,130807.00,A,3825.57917,N,02708.09741,E,0.272,,180424,,,A*76

[2024-04-18 16:06:17.421116] $GPRMC,130808.00,A,3825.57917,N,02708.09712,E,0.099,,180424,,,A*78

[2024-04-18 16:06:18.422592] $GPRMC,130809.00,A,3825.57918,N,02708.09710,E,0.853,,180424,,,A*7A

[2024-04-18 16:06:19.422053] $GPRMC,130810.00,A,3825.57916,N,02708.09707,E,0.878,,180424,,,A*73

[2024-04-18 16:06:20.421865] $GPRMC,130811.00,A,3825.57910,N,02708.09695,E,0.124,,180424,,,A*7E

[2024-04-18 16:06:21.421451] $GPRMC,130812.00,A,3825.57910,N,02708.09684,E,0.192,,180424,,,A*70

[2024-04-18 16:06:22.426664] $GPRMC,130813.00,A,3825.57912,N,02708.09640,E,0.258,,180424,,,A*7E

[2024-04-18 16:06:23.421314] $GPRMC,130814.00,A,3825.57917,N,02708.09631,E,0.057,,180424,,,A*77

[2024-04-18 16:06:24.426913] $GPRMC,130815.00,A,3825.57922,N,02708.09646,E,0.630,,180424,,,A*77

[2024-04-18 16:06:25.421329] $GPRMC,130816.00,A,3825.57931,N,02708.09650,E,0.558,,180424,,,A*7C

[2024-04-18 16:06:26.420989] $GPRMC,130817.00,A,3825.57945,N,02708.09658,E,0.553,,180424,,,A*7D

[2024-04-18 16:06:27.422371] $GPRMC,130818.00,A,3825.57958,N,02708.09657,E,0.187,,180424,,,A*7C

[2024-04-18 16:06:28.422742] $GPRMC,130819.00,A,3825.57975,N,02708.09669,E,0.120,,180424,,,A*72

[2024-04-18 16:06:29.423687] $GPRMC,130820.00,A,3825.58016,N,02708.09704,E,0.306,,180424,,,A*77

[2024-04-18 16:06:30.421927] $GPRMC,130821.00,A,3825.58046,N,02708.09733,E,0.104,,180424,,,A*77

[2024-04-18 16:06:31.425141] $GPRMC,130822.00,A,3825.58072,N,02708.09755,E,0.338,,180424,,,A*7E

[2024-04-18 16:06:32.421192] $GPRMC,130823.00,A,3825.58110,N,02708.09796,E,0.180,,180424,,,A*74

[2024-04-18 16:06:33.421192] $GPRMC,130824.00,A,3825.58139,N,02708.09829,E,0.263,,180424,,,A*7D

[2024-04-18 16:06:34.420947] $GPRMC,130825.00,A,3825.58160,N,02708.09855,E,0.238,,180424,,,A*75

[2024-04-18 16:06:35.421007] $GPRMC,130826.00,A,3825.58176,N,02708.09868,E,0.399,,180424,,,A*75

[2024-04-18 16:06:36.421230] $GPRMC,130827.00,A,3825.58188,N,02708.09885,E,0.312,,180424,,,A*75

[2024-04-18 16:06:37.423956] $GPRMC,130828.00,A,3825.58204,N,02708.09918,E,0.350,,180424,,,A*7E

[2024-04-18 16:06:38.422936] $GPRMC,130829.00,A,3825.58233,N,02708.09956,E,0.381,,180424,,,A*7D

[2024-04-18 16:06:39.420074] $GPRMC,130830.00,A,3825.58248,N,02708.09981,E,0.078,,180424,,,A*76

[2024-04-18 16:06:40.421631] $GPRMC,130831.00,A,3825.58254,N,02708.09986,E,0.468,,180424,,,A*78

[2024-04-18 16:06:41.421012] $GPRMC,130832.00,A,3825.58261,N,02708.09994,E,0.353,,180424,,,A*71

[2024-04-18 16:06:42.419631] $GPRMC,130833.00,A,3825.58264,N,02708.10005,E,0.151,,180424,,,A*7C

[2024-04-18 16:06:43.419950] $GPRMC,130834.00,A,3825.58270,N,02708.10012,E,0.135,,180424,,,A*7A

[2024-04-18 16:06:44.419925] $GPRMC,130835.00,A,3825.58275,N,02708.10021,E,0.465,,180424,,,A*7E

[2024-04-18 16:06:45.420340] $GPRMC,130836.00,A,3825.58273,N,02708.10035,E,0.565,,180424,,,A*7F

[2024-04-18 16:06:46.421646] $GPRMC,130837.00,A,3825.58273,N,02708.10052,E,0.119,,180424,,,A*70

[2024-04-18 16:06:47.422398] $GPRMC,130838.00,A,3825.58271,N,02708.10051,E,0.265,,180424,,,A*76

[2024-04-18 16:06:48.419690] $GPRMC,130839.00,A,3825.58269,N,02708.10057,E,0.066,,180424,,,A*79

[2024-04-18 16:06:49.422255] $GPRMC,130840.00,A,3825.58261,N,02708.10057,E,0.458,,180424,,,A*76

[2024-04-18 16:06:50.421559] $GPRMC,130841.00,A,3825.58251,N,02708.10057,E,0.292,,180424,,,A*74

[2024-04-18 16:06:51.420382] $GPRMC,130842.00,A,3825.58239,N,02708.10063,E,0.317,,180424,,,A*72

[2024-04-18 16:06:52.426980] $GPRMC,130843.00,A,3825.58235,N,02708.10071,E,0.277,,180424,,,A*7B

[2024-04-18 16:06:53.420235] $GPRMC,130844.00,A,3825.58238,N,02708.10077,E,0.359,,180424,,,A*7A

[2024-04-18 16:06:54.420249] $GPRMC,130845.00,A,3825.58243,N,02708.10088,E,0.335,,180424,,,A*7D

[2024-04-18 16:06:55.426247] $GPRMC,130846.00,A,3825.58244,N,02708.10104,E,0.335,,180424,,,A*7C

[2024-04-18 16:06:56.424220] $GPRMC,130847.00,A,3825.58255,N,02708.10113,E,0.350,,180424,,,A*78

[2024-04-18 16:06:57.422767] $GPRMC,130848.00,A,3825.58268,N,02708.10127,E,0.164,,180424,,,A*7B

[2024-04-18 16:06:58.429932] $GPRMC,130849.00,A,3825.58262,N,02708.10063,E,0.396,,180424,,,A*7E

[2024-04-18 16:06:59.422578] $GPRMC,130850.00,A,3825.58260,N,02708.10001,E,0.372,,180424,,,A*7A

[2024-04-18 16:07:00.420292] $GPRMC,130851.00,A,3825.58266,N,02708.09988,E,0.068,,180424,,,A*75

[2024-04-18 16:07:01.420432] $GPRMC,130852.00,A,3825.58274,N,02708.09967,E,0.120,,180424,,,A*79

[2024-04-18 16:07:02.419225] $GPRMC,130853.00,A,3825.58277,N,02708.09944,E,0.182,,180424,,,A*72

[2024-04-18 16:07:03.419758] $GPRMC,130854.00,A,3825.58280,N,02708.09931,E,0.144,,180424,,,A*75

[2024-04-18 16:07:04.422368] $GPRMC,130855.00,A,3825.58282,N,02708.09933,E,0.512,,180424,,,A*73

[2024-04-18 16:07:05.421916] $GPRMC,130856.00,A,3825.58286,N,02708.09933,E,0.496,,180424,,,A*79

[2024-04-18 16:07:06.419892] $GPRMC,130857.00,A,3825.58291,N,02708.09932,E,0.113,,180424,,,A*77

[2024-04-18 16:07:07.420099] $GPRMC,130858.00,A,3825.58292,N,02708.09929,E,0.112,,180424,,,A*70

[2024-04-18 16:07:08.421655] $GPRMC,130859.00,A,3825.58288,N,02708.09916,E,0.057,,180424,,,A*76

[2024-04-18 16:07:09.423460] $GPRMC,130900.00,A,3825.58282,N,02708.09899,E,0.139,,180424,,,A*7E

[2024-04-18 16:07:10.428113] $GPRMC,130901.00,A,3825.58299,N,02708.09969,E,0.148,,180424,,,A*7D

[2024-04-18 16:07:11.425239] $GPRMC,130902.00,A,3825.58301,N,02708.09986,E,0.399,,180424,,,A*71

[2024-04-18 16:07:12.425028] $GPRMC,130903.00,A,3825.58294,N,02708.09976,E,0.275,,180424,,,A*71

[2024-04-18 16:07:13.425273] $GPRMC,130904.00,A,3825.58286,N,02708.09960,E,0.231,,180424,,,A*72

[2024-04-18 16:07:14.423676] $GPRMC,130905.00,A,3825.58282,N,02708.09942,E,0.327,,180424,,,A*71

[2024-04-18 16:07:15.424410] $GPRMC,130906.00,A,3825.58286,N,02708.09945,E,0.599,,180424,,,A*72

[2024-04-18 16:07:16.423016] $GPRMC,130907.00,A,3825.58289,N,02708.09933,E,0.540,,180424,,,A*79

[2024-04-18 16:07:17.425712] $GPRMC,130908.00,A,3825.58295,N,02708.09940,E,0.147,,180424,,,A*7C

[2024-04-18 16:07:18.423648] $GPRMC,130909.00,A,3825.58299,N,02708.09932,E,0.085,,180424,,,A*7B

[2024-04-18 16:07:19.425471] $GPRMC,130910.00,A,3825.58304,N,02708.09910,E,0.287,,180424,,,A*76

[2024-04-18 16:07:20.423332] $GPRMC,130911.00,A,3825.58309,N,02708.09903,E,0.152,,180424,,,A*73

[2024-04-18 16:07:21.428450] $GPRMC,130912.00,A,3825.58309,N,02708.09898,E,0.318,,180424,,,A*7F

[2024-04-18 16:07:22.430156] $GPRMC,130913.00,A,3825.58314,N,02708.09907,E,0.233,,180424,,,A*7D

[2024-04-18 16:07:23.424353] $GPRMC,130914.00,A,3825.58317,N,02708.09915,E,0.144,,180424,,,A*79

[2024-04-18 16:07:24.431738] $GPRMC,130915.00,A,3825.58330,N,02708.09923,E,0.423,,180424,,,A*7C

[2024-04-18 16:07:25.425461] $GPRMC,130916.00,A,3825.58346,N,02708.09938,E,0.570,,180424,,,A*73

[2024-04-18 16:07:26.424667] $GPRMC,130917.00,A,3825.58352,N,02708.09941,E,0.202,,180424,,,A*7B

[2024-04-18 16:07:27.425968] $GPRMC,130918.00,A,3825.58358,N,02708.09954,E,0.302,,180424,,,A*7B

[2024-04-18 16:07:28.423646] $GPRMC,130919.00,A,3825.58362,N,02708.09961,E,0.612,,180424,,,A*71

[2024-04-18 16:07:29.426559] $GPRMC,130920.00,A,3825.58369,N,02708.09981,E,0.850,,180424,,,A*76

[2024-04-18 16:07:30.427055] $GPRMC,130921.00,A,3825.58377,N,02708.09971,E,0.186,,180424,,,A*75

[2024-04-18 16:07:31.427409] $GPRMC,130922.00,A,3825.58379,N,02708.09967,E,0.085,,180424,,,A*7D

[2024-04-18 16:07:32.425110] $GPRMC,130923.00,A,3825.58385,N,02708.09956,E,0.302,,180424,,,A*71

[2024-04-18 16:07:33.423720] $GPRMC,130924.00,A,3825.58396,N,02708.09947,E,0.470,,180424,,,A*76

[2024-04-18 16:07:34.425643] $GPRMC,130925.00,A,3825.58404,N,02708.09936,E,0.513,,180424,,,A*79

[2024-04-18 16:07:35.426902] $GPRMC,130926.00,A,3825.58414,N,02708.09941,E,0.549,,180424,,,A*74

[2024-04-18 16:07:36.423527] $GPRMC,130927.00,A,3825.58415,N,02708.09939,E,0.440,,180424,,,A*73

[2024-04-18 16:07:37.423786] $GPRMC,130928.00,A,3825.58422,N,02708.09929,E,0.334,,180424,,,A*7D

[2024-04-18 16:07:38.424822] $GPRMC,130929.00,A,3825.58428,N,02708.09925,E,0.374,,180424,,,A*7E

[2024-04-18 16:07:39.424684] $GPRMC,130930.00,A,3825.58430,N,02708.09921,E,0.111,,180424,,,A*7A

[2024-04-18 16:07:40.423798] $GPRMC,130931.00,A,3825.58429,N,02708.09904,E,0.159,,180424,,,A*78

[2024-04-18 16:07:41.426091] $GPRMC,130932.00,A,3825.58421,N,02708.09895,E,0.411,,180424,,,A*73

[2024-04-18 16:07:42.423055] $GPRMC,130933.00,A,3825.58414,N,02708.09888,E,0.315,,180424,,,A*7B

[2024-04-18 16:07:43.425666] $GPRMC,130934.00,A,3825.58408,N,02708.09878,E,0.076,,180424,,,A*78

[2024-04-18 16:07:44.422175] $GPRMC,130935.00,A,3825.58399,N,02708.09858,E,0.245,,180424,,,A*76

[2024-04-18 16:07:45.423645] $GPRMC,130936.00,A,3825.58392,N,02708.09852,E,0.274,,180424,,,A*76

[2024-04-18 16:07:46.424882] $GPRMC,130937.00,A,3825.58382,N,02708.09846,E,0.121,,180424,,,A*70

[2024-04-18 16:07:47.425674] $GPRMC,130938.00,A,3825.58377,N,02708.09835,E,0.209,,180424,,,A*78

[2024-04-18 16:07:48.425135] $GPRMC,130939.00,A,3825.58373,N,02708.09828,E,0.013,,180424,,,A*78

[2024-04-18 16:07:49.426067] $GPRMC,130940.00,A,3825.58371,N,02708.09826,E,0.057,,180424,,,A*7A

[2024-04-18 16:07:50.425027] $GPRMC,130941.00,A,3825.58372,N,02708.09818,E,0.223,,180424,,,A*74

[2024-04-18 16:07:51.425340] $GPRMC,130942.00,A,3825.58368,N,02708.09807,E,0.241,,180424,,,A*76

[2024-04-18 16:07:52.423247] $GPRMC,130943.00,A,3825.58366,N,02708.09807,E,0.203,,180424,,,A*7F

[2024-04-18 16:07:53.426743] $GPRMC,130944.00,A,3825.58356,N,02708.09785,E,0.200,,180424,,,A*7D

[2024-04-18 16:07:54.424694] $GPRMC,130945.00,A,3825.58361,N,02708.09785,E,0.096,,180424,,,A*75

[2024-04-18 16:07:55.427089] $GPRMC,130946.00,A,3825.58359,N,02708.09777,E,0.214,,180424,,,A*78

[2024-04-18 16:07:56.427219] $GPRMC,130947.00,A,3825.58355,N,02708.09769,E,0.259,,180424,,,A*73

[2024-04-18 16:07:57.427867] $GPRMC,130948.00,A,3825.58351,N,02708.09760,E,0.128,,180424,,,A*74

[2024-04-18 16:07:58.427693] $GPRMC,130949.00,A,3825.58347,N,02708.09763,E,0.153,,180424,,,A*7D

[2024-04-18 16:07:59.425804] $GPRMC,130950.00,A,3825.58349,N,02708.09760,E,0.217,,180424,,,A*7B

[2024-04-18 16:08:00.422660] $GPRMC,130951.00,A,3825.58349,N,02708.09764,E,0.297,,180424,,,A*76

[2024-04-18 16:08:01.425528] $GPRMC,130952.00,A,3825.58349,N,02708.09773,E,0.094,,180424,,,A*72

[2024-04-18 16:08:02.425156] $GPRMC,130953.00,A,3825.58349,N,02708.09773,E,0.103,,180424,,,A*7C

[2024-04-18 16:08:03.425652] $GPRMC,130954.00,A,3825.58360,N,02708.09786,E,0.248,,180424,,,A*76

[2024-04-18 16:08:04.421330] $GPRMC,130955.00,A,3825.58360,N,02708.09790,E,0.343,,180424,,,A*7A

[2024-04-18 16:08:05.419528] $GPRMC,130956.00,A,3825.58370,N,02708.09796,E,0.022,,180424,,,A*7A

[2024-04-18 16:08:06.420833] $GPRMC,130957.00,A,3825.58376,N,02708.09798,E,0.129,,180424,,,A*79

[2024-04-18 16:08:07.420673] $GPRMC,130958.00,A,3825.58379,N,02708.09800,E,0.027,,180424,,,A*78

[2024-04-18 16:08:08.419240] $GPRMC,130959.00,A,3825.58385,N,02708.09784,E,0.189,,180424,,,A*7C

[2024-04-18 16:08:09.423234] $GPRMC,131000.00,A,3825.58381,N,02708.09780,E,0.243,,180424,,,A*7D

[2024-04-18 16:08:10.421208] $GPRMC,131001.00,A,3825.58377,N,02708.09780,E,0.067,,180424,,,A*71

[2024-04-18 16:08:11.419792] $GPRMC,131002.00,A,3825.58372,N,02708.09777,E,0.080,,180424,,,A*76

[2024-04-18 16:08:12.418446] $GPRMC,131003.00,A,3825.58367,N,02708.09771,E,0.235,,180424,,,A*79

[2024-04-18 16:08:13.418408] $GPRMC,131004.00,A,3825.58355,N,02708.09763,E,0.172,,180424,,,A*7C

[2024-04-18 16:08:14.419162] $GPRMC,131005.00,A,3825.58333,N,02708.09754,E,0.325,,180424,,,A*79

[2024-04-18 16:08:15.420887] $GPRMC,131006.00,A,3825.58327,N,02708.09736,E,0.706,,180424,,,A*7E

[2024-04-18 16:08:16.418437] $GPRMC,131007.00,A,3825.58309,N,02708.09717,E,0.061,,180424,,,A*76

[2024-04-18 16:08:17.420512] $GPRMC,131008.00,A,3825.58297,N,02708.09699,E,0.106,,180424,,,A*78

[2024-04-18 16:08:18.421110] $GPRMC,131009.00,A,3825.58291,N,02708.09694,E,0.026,,180424,,,A*71

[2024-04-18 16:08:19.423283] $GPRMC,131010.00,A,3825.58277,N,02708.09687,E,0.080,,180424,,,A*7F

[2024-04-18 16:08:20.420081] $GPRMC,131011.00,A,3825.58263,N,02708.09676,E,0.114,,180424,,,A*79

[2024-04-18 16:08:21.425078] $GPRMC,131012.00,A,3825.58258,N,02708.09656,E,0.168,,180424,,,A*7B

[2024-04-18 16:08:22.420261] $GPRMC,131013.00,A,3825.58256,N,02708.09651,E,0.126,,180424,,,A*79

[2024-04-18 16:08:23.425483] $GPRMC,131014.00,A,3825.58250,N,02708.09649,E,0.315,,180424,,,A*73

[2024-04-18 16:08:24.432160] $GPRMC,131015.00,A,3825.58248,N,02708.09651,E,0.343,,180424,,,A*71

[2024-04-18 16:08:25.426141] $GPRMC,131016.00,A,3825.58249,N,02708.09649,E,0.101,,180424,,,A*7E

[2024-04-18 16:08:26.427638] $GPRMC,131017.00,A,3825.58260,N,02708.09679,E,0.061,,180424,,,A*70

[2024-04-18 16:08:27.429996] $GPRMC,131018.00,A,3825.58277,N,02708.09716,E,0.025,,180424,,,A*71

[2024-04-18 16:08:28.428945] $GPRMC,131019.00,A,3825.58287,N,02708.09739,E,0.089,,180424,,,A*74

[2024-04-18 16:08:29.426603] $GPRMC,131020.00,A,3825.58298,N,02708.09762,E,0.102,,180424,,,A*7C

[2024-04-18 16:08:30.428482] $GPRMC,131021.00,A,3825.58323,N,02708.09800,E,0.025,,180424,,,A*73

[2024-04-18 16:08:31.427382] $GPRMC,131022.00,A,3825.58331,N,02708.09807,E,0.014,,180424,,,A*76

[2024-04-18 16:08:32.428008] $GPRMC,131023.00,A,3825.58342,N,02708.09832,E,0.071,,180424,,,A*76

[2024-04-18 16:08:33.428249] $GPRMC,131024.00,A,3825.58351,N,02708.09845,E,0.102,,180424,,,A*76

[2024-04-18 16:08:34.426422] $GPRMC,131025.00,A,3825.58363,N,02708.09859,E,0.096,,180424,,,A*77

[2024-04-18 16:08:35.428586] $GPRMC,131026.00,A,3825.58375,N,02708.09866,E,0.113,,180424,,,A*73

[2024-04-18 16:08:36.427979] $GPRMC,131027.00,A,3825.58386,N,02708.09880,E,0.040,,180424,,,A*71

[2024-04-18 16:08:37.428412] $GPRMC,131028.00,A,3825.58401,N,02708.09873,E,0.652,,180424,,,A*7F

[2024-04-18 16:08:38.426268] $GPRMC,131029.00,A,3825.58398,N,02708.09877,E,0.467,,180424,,,A*79

[2024-04-18 16:08:39.425589] $GPRMC,131030.00,A,3825.58405,N,02708.09891,E,0.190,,180424,,,A*77

[2024-04-18 16:08:40.427767] $GPRMC,131031.00,A,3825.58409,N,02708.09900,E,0.028,,180424,,,A*71

[2024-04-18 16:08:41.429003] $GPRMC,131032.00,A,3825.58406,N,02708.09909,E,0.031,,180424,,,A*7C

[2024-04-18 16:08:42.428010] $GPRMC,131033.00,A,3825.58400,N,02708.09924,E,0.021,,180424,,,A*75

[2024-04-18 16:08:43.428666] $GPRMC,131034.00,A,3825.58398,N,02708.09934,E,0.124,,180424,,,A*71

[2024-04-18 16:08:44.426314] $GPRMC,131035.00,A,3825.58398,N,02708.09950,E,0.228,,180424,,,A*7D

[2024-04-18 16:08:45.427988] $GPRMC,131036.00,A,3825.58390,N,02708.09961,E,0.062,,180424,,,A*78

[2024-04-18 16:08:46.429715] $GPRMC,131037.00,A,3825.58384,N,02708.09974,E,0.087,,180424,,,A*73

[2024-04-18 16:08:47.425817] $GPRMC,131038.00,A,3825.58383,N,02708.09988,E,0.181,,180424,,,A*7F

[2024-04-18 16:08:48.425994] $GPRMC,131039.00,A,3825.58379,N,02708.10002,E,0.297,,180424,,,A*7C

[2024-04-18 16:08:49.429255] $GPRMC,131040.00,A,3825.58373,N,02708.10011,E,0.055,,180424,,,A*76

[2024-04-18 16:08:50.429532] $GPRMC,131041.00,A,3825.58370,N,02708.10028,E,0.063,,180424,,,A*7B

[2024-04-18 16:08:51.426180] $GPRMC,131042.00,A,3825.58368,N,02708.10034,E,0.096,,180424,,,A*76

[2024-04-18 16:08:52.431384] $GPRMC,131043.00,A,3825.58367,N,02708.10041,E,0.101,,180424,,,A*75

[2024-04-18 16:08:53.427824] $GPRMC,131044.00,A,3825.58369,N,02708.10054,E,0.103,,180424,,,A*7A

[2024-04-18 16:08:54.426858] $GPRMC,131045.00,A,3825.58368,N,02708.10063,E,0.123,,180424,,,A*7C

[2024-04-18 16:08:55.428977] $GPRMC,131046.00,A,3825.58369,N,02708.10070,E,0.129,,180424,,,A*76

[2024-04-18 16:08:56.426384] $GPRMC,131047.00,A,3825.58371,N,02708.10071,E,0.115,,180424,,,A*70

[2024-04-18 16:08:57.426142] $GPRMC,131048.00,A,3825.58373,N,02708.10066,E,0.095,,180424,,,A*72

[2024-04-18 16:08:58.428821] $GPRMC,131049.00,A,3825.58369,N,02708.10051,E,0.319,,180424,,,A*7B

[2024-04-18 16:08:59.427873] $GPRMC,131050.00,A,3825.58368,N,02708.10039,E,0.313,,180424,,,A*76

[2024-04-18 16:09:00.425058] $GPRMC,131051.00,A,3825.58368,N,02708.10026,E,0.117,,180424,,,A*7F

[2024-04-18 16:09:01.424062] $GPRMC,131052.00,A,3825.58371,N,02708.10017,E,0.112,,180424,,,A*73

[2024-04-18 16:09:02.425335] $GPRMC,131053.00,A,3825.58372,N,02708.10009,E,0.073,,180424,,,A*78

[2024-04-18 16:09:03.427104] $GPRMC,131054.00,A,3825.58373,N,02708.10008,E,0.064,,180424,,,A*79

[2024-04-18 16:09:04.428503] $GPRMC,131055.00,A,3825.58375,N,02708.10014,E,0.061,,180424,,,A*76

[2024-04-18 16:09:05.426074] $GPRMC,131056.00,A,3825.58380,N,02708.10017,E,0.024,,180424,,,A*7D

[2024-04-18 16:09:06.424904] $GPRMC,131057.00,A,3825.58386,N,02708.10018,E,0.061,,180424,,,A*74

[2024-04-18 16:09:07.425780] $GPRMC,131058.00,A,3825.58393,N,02708.10019,E,0.190,,180424,,,A*71

[2024-04-18 16:09:08.428303] $GPRMC,131059.00,A,3825.58403,N,02708.10023,E,0.246,,180424,,,A*7F

[2024-04-18 16:09:09.427831] $GPRMC,131100.00,A,3825.58411,N,02708.10026,E,0.096,,180424,,,A*7B

[2024-04-18 16:09:10.426798] $GPRMC,131101.00,A,3825.58418,N,02708.10029,E,0.063,,180424,,,A*76

[2024-04-18 16:09:11.428264] $GPRMC,131102.00,A,3825.58423,N,02708.10028,E,0.067,,180424,,,A*78

[2024-04-18 16:09:12.428022] $GPRMC,131103.00,A,3825.58428,N,02708.10023,E,0.069,,180424,,,A*77

[2024-04-18 16:09:13.427298] $GPRMC,131104.00,A,3825.58433,N,02708.10019,E,0.053,,180424,,,A*7A

[2024-04-18 16:09:14.427194] $GPRMC,131105.00,A,3825.58435,N,02708.10008,E,0.131,,180424,,,A*78

[2024-04-18 16:09:15.428057] $GPRMC,131106.00,A,3825.58436,N,02708.10001,E,0.180,,180424,,,A*7B

[2024-04-18 16:09:16.431361] $GPRMC,131107.00,A,3825.58433,N,02708.09992,E,0.069,,180424,,,A*72

[2024-04-18 16:09:17.426292] $GPRMC,131108.00,A,3825.58430,N,02708.09980,E,0.017,,180424,,,A*74

[2024-04-18 16:09:18.424541] $GPRMC,131109.00,A,3825.58428,N,02708.09970,E,0.163,,180424,,,A*71

[2024-04-18 16:09:19.425343] $GPRMC,131110.00,A,3825.58425,N,02708.09961,E,0.235,,180424,,,A*74

[2024-04-18 16:09:20.426293] $GPRMC,131111.00,A,3825.58419,N,02708.09952,E,0.039,,180424,,,A*74

[2024-04-18 16:09:21.429072] $GPRMC,131112.00,A,3825.58415,N,02708.09940,E,0.119,,180424,,,A*7B

[2024-04-18 16:09:22.430211] $GPRMC,131113.00,A,3825.58410,N,02708.09932,E,0.099,,180424,,,A*73

[2024-04-18 16:09:23.426116] $GPRMC,131114.00,A,3825.58405,N,02708.09929,E,0.198,,180424,,,A*7A

[2024-04-18 16:09:24.431671] $GPRMC,131115.00,A,3825.58401,N,02708.09925,E,0.182,,180424,,,A*78

[2024-04-18 16:09:25.427213] $GPRMC,131116.00,A,3825.58396,N,02708.09923,E,0.122,,180424,,,A*7E

[2024-04-18 16:09:26.427239] $GPRMC,131117.00,A,3825.58391,N,02708.09922,E,0.130,,180424,,,A*7A

[2024-04-18 16:09:27.426828] $GPRMC,131118.00,A,3825.58388,N,02708.09918,E,0.158,,180424,,,A*7A

[2024-04-18 16:09:28.424283] $GPRMC,131119.00,A,3825.58385,N,02708.09917,E,0.134,,180424,,,A*73

[2024-04-18 16:09:29.426659] $GPRMC,131120.00,A,3825.58388,N,02708.09920,E,0.031,,180424,,,A*74

[2024-04-18 16:09:30.428175] $GPRMC,131121.00,A,3825.58392,N,02708.09923,E,0.045,,180424,,,A*7E

[2024-04-18 16:09:31.427526] $GPRMC,131122.00,A,3825.58402,N,02708.09930,E,0.098,,180424,,,A*71

[2024-04-18 16:09:32.426835] $GPRMC,131123.00,A,3825.58408,N,02708.09929,E,0.014,,180424,,,A*76

[2024-04-18 16:09:33.429197] $GPRMC,131124.00,A,3825.58413,N,02708.09930,E,0.024,,180424,,,A*70

[2024-04-18 16:09:34.429363] $GPRMC,131125.00,A,3825.58419,N,02708.09938,E,0.017,,180424,,,A*73

[2024-04-18 16:09:35.430853] $GPRMC,131126.00,A,3825.58426,N,02708.09941,E,0.013,,180424,,,A*76

[2024-04-18 16:09:36.429611] $GPRMC,131127.00,A,3825.58432,N,02708.09942,E,0.020,,180424,,,A*71

[2024-04-18 16:09:37.429433] $GPRMC,131128.00,A,3825.58441,N,02708.09942,E,0.004,,180424,,,A*7C

[2024-04-18 16:09:38.429039] $GPRMC,131129.00,A,3825.58449,N,02708.09941,E,0.138,,180424,,,A*78

[2024-04-18 16:09:39.430348] $GPRMC,131130.00,A,3825.58456,N,02708.09945,E,0.121,,180424,,,A*72

[2024-04-18 16:09:40.426174] $GPRMC,131131.00,A,3825.58462,N,02708.09938,E,0.032,,180424,,,A*7D

[2024-04-18 16:09:41.429174] $GPRMC,131132.00,A,3825.58467,N,02708.09936,E,0.043,,180424,,,A*73

[2024-04-18 16:09:42.429307] $GPRMC,131133.00,A,3825.58474,N,02708.09932,E,0.026,,180424,,,A*77

[2024-04-18 16:09:43.430660] $GPRMC,131134.00,A,3825.58479,N,02708.09924,E,0.002,,180424,,,A*7C

[2024-04-18 16:09:44.429698] $GPRMC,131135.00,A,3825.58481,N,02708.09914,E,0.029,,180424,,,A*70

[2024-04-18 16:09:45.428529] $GPRMC,131136.00,A,3825.58484,N,02708.09908,E,0.031,,180424,,,A*72

[2024-04-18 16:09:46.428359] $GPRMC,131137.00,A,3825.58486,N,02708.09902,E,0.010,,180424,,,A*78

[2024-04-18 16:09:47.427436] $GPRMC,131138.00,A,3825.58488,N,02708.09901,E,0.127,,180424,,,A*7F

[2024-04-18 16:09:48.426142] $GPRMC,131139.00,A,3825.58492,N,02708.09898,E,0.170,,180424,,,A*76

[2024-04-18 16:09:49.428522] $GPRMC,131140.00,A,3825.58493,N,02708.09895,E,0.183,,180424,,,A*78

[2024-04-18 16:09:50.428438] $GPRMC,131141.00,A,3825.58491,N,02708.09884,E,0.107,,180424,,,A*77

[2024-04-18 16:09:51.430879] $GPRMC,131142.00,A,3825.58488,N,02708.09882,E,0.113,,180424,,,A*7F

[2024-04-18 16:09:52.429807] $GPRMC,131143.00,A,3825.58484,N,02708.09876,E,0.092,,180424,,,A*71

[2024-04-18 16:09:53.429323] $GPRMC,131144.00,A,3825.58482,N,02708.09878,E,0.032,,180424,,,A*74

[2024-04-18 16:09:54.427687] $GPRMC,131145.00,A,3825.58482,N,02708.09877,E,0.020,,180424,,,A*79

[2024-04-18 16:09:55.429932] $GPRMC,131146.00,A,3825.58480,N,02708.09879,E,0.063,,180424,,,A*71

[2024-04-18 16:09:56.429427] $GPRMC,131147.00,A,3825.58476,N,02708.09878,E,0.037,,180424,,,A*79

[2024-04-18 16:09:57.429726] $GPRMC,131148.00,A,3825.58469,N,02708.09876,E,0.081,,180424,,,A*7B

[2024-04-18 16:09:58.429219] $GPRMC,131149.00,A,3825.58466,N,02708.09873,E,0.083,,180424,,,A*72

[2024-04-18 16:09:59.427699] $GPRMC,131150.00,A,3825.58462,N,02708.09869,E,0.111,,180424,,,A*7F

[2024-04-18 16:10:00.427962] $GPRMC,131151.00,A,3825.58457,N,02708.09864,E,0.081,,180424,,,A*7D

[2024-04-18 16:10:01.427476] $GPRMC,131152.00,A,3825.58452,N,02708.09859,E,0.053,,180424,,,A*7A

[2024-04-18 16:10:02.425740] $GPRMC,131153.00,A,3825.58452,N,02708.09856,E,0.102,,180424,,,A*71

[2024-04-18 16:10:03.429510] $GPRMC,131154.00,A,3825.58452,N,02708.09853,E,0.045,,180424,,,A*71

[2024-04-18 16:10:04.430107] $GPRMC,131155.00,A,3825.58450,N,02708.09840,E,0.166,,180424,,,A*70

[2024-04-18 16:10:05.428764] $GPRMC,131156.00,A,3825.58445,N,02708.09833,E,0.082,,180424,,,A*78

[2024-04-18 16:10:06.426968] $GPRMC,131157.00,A,3825.58442,N,02708.09836,E,0.068,,180424,,,A*7F

[2024-04-18 16:10:07.427681] $GPRMC,131158.00,A,3825.58440,N,02708.09840,E,0.090,,180424,,,A*74

[2024-04-18 16:10:08.428548] $GPRMC,131159.00,A,3825.58438,N,02708.09841,E,0.052,,180424,,,A*75

[2024-04-18 16:10:09.430838] $GPRMC,131200.00,A,3825.58435,N,02708.09841,E,0.054,,180424,,,A*71

[2024-04-18 16:10:10.429331] $GPRMC,131201.00,A,3825.58430,N,02708.09840,E,0.113,,180424,,,A*76

[2024-04-18 16:10:11.428174] $GPRMC,131202.00,A,3825.58427,N,02708.09839,E,0.092,,180424,,,A*75

[2024-04-18 16:10:12.425615] $GPRMC,131203.00,A,3825.58424,N,02708.09837,E,0.022,,180424,,,A*72

[2024-04-18 16:10:13.427878] $GPRMC,131204.00,A,3825.58420,N,02708.09839,E,0.187,,180424,,,A*71

[2024-04-18 16:10:14.427339] $GPRMC,131205.00,A,3825.58416,N,02708.09837,E,0.168,,180424,,,A*7A

[2024-04-18 16:10:15.425984] $GPRMC,131206.00,A,3825.58414,N,02708.09836,E,0.083,,180424,,,A*7E

[2024-04-18 16:10:16.425741] $GPRMC,131207.00,A,3825.58410,N,02708.09838,E,0.091,,180424,,,A*76

[2024-04-18 16:10:17.427708] $GPRMC,131208.00,A,3825.58406,N,02708.09841,E,0.038,,180424,,,A*73

[2024-04-18 16:10:18.427655] $GPRMC,131209.00,A,3825.58403,N,02708.09844,E,0.130,,180424,,,A*7B

[2024-04-18 16:10:19.429668] $GPRMC,131210.00,A,3825.58400,N,02708.09846,E,0.106,,180424,,,A*77

[2024-04-18 16:10:20.426886] $GPRMC,131211.00,A,3825.58400,N,02708.09846,E,0.033,,180424,,,A*71

[2024-04-18 16:10:21.428304] $GPRMC,131212.00,A,3825.58400,N,02708.09847,E,0.055,,180424,,,A*73

[2024-04-18 16:10:22.425979] $GPRMC,131213.00,A,3825.58400,N,02708.09850,E,0.111,,180424,,,A*75

[2024-04-18 16:10:23.428743] $GPRMC,131214.00,A,3825.58402,N,02708.09851,E,0.049,,180424,,,A*7D

[2024-04-18 16:10:24.431097] $GPRMC,131215.00,A,3825.58405,N,02708.09853,E,0.220,,180424,,,A*74

[2024-04-18 16:10:25.426227] $GPRMC,131216.00,A,3825.58407,N,02708.09855,E,0.123,,180424,,,A*73

[2024-04-18 16:10:26.427302] $GPRMC,131217.00,A,3825.58413,N,02708.09853,E,0.034,,180424,,,A*76

[2024-04-18 16:10:27.428163] $GPRMC,131218.00,A,3825.58419,N,02708.09850,E,0.142,,180424,,,A*70

[2024-04-18 16:10:28.428027] $GPRMC,131219.00,A,3825.58424,N,02708.09844,E,0.078,,180424,,,A*72

[2024-04-18 16:10:29.428139] $GPRMC,131220.00,A,3825.58429,N,02708.09840,E,0.014,,180424,,,A*7B

[2024-04-18 16:10:30.427250] $GPRMC,131221.00,A,3825.58432,N,02708.09833,E,0.053,,180424,,,A*77

[2024-04-18 16:10:31.427100] $GPRMC,131222.00,A,3825.58432,N,02708.09827,E,0.162,,180424,,,A*72

[2024-04-18 16:10:32.426103] $GPRMC,131223.00,A,3825.58434,N,02708.09819,E,0.175,,180424,,,A*7E

[2024-04-18 16:10:33.426435] $GPRMC,131224.00,A,3825.58439,N,02708.09813,E,0.130,,180424,,,A*7F

[2024-04-18 16:10:34.425512] $GPRMC,131225.00,A,3825.58442,N,02708.09809,E,0.137,,180424,,,A*7E

[2024-04-18 16:10:35.428469] $GPRMC,131226.00,A,3825.58443,N,02708.09805,E,0.103,,180424,,,A*77

[2024-04-18 16:10:36.427409] $GPRMC,131227.00,A,3825.58445,N,02708.09800,E,0.114,,180424,,,A*73

[2024-04-18 16:10:37.426318] $GPRMC,131228.00,A,3825.58447,N,02708.09797,E,0.046,,180424,,,A*79

[2024-04-18 16:10:38.427629] $GPRMC,131229.00,A,3825.58448,N,02708.09792,E,0.178,,180424,,,A*7E

[2024-04-18 16:10:39.428178] $GPRMC,131230.00,A,3825.58448,N,02708.09788,E,0.095,,180424,,,A*7F

[2024-04-18 16:10:40.427252] $GPRMC,131231.00,A,3825.58446,N,02708.09788,E,0.064,,180424,,,A*7E

[2024-04-18 16:10:41.428172] $GPRMC,131232.00,A,3825.58444,N,02708.09787,E,0.054,,180424,,,A*73

[2024-04-18 16:10:42.426212] $GPRMC,131233.00,A,3825.58445,N,02708.09788,E,0.176,,180424,,,A*7D

[2024-04-18 16:10:43.427423] $GPRMC,131234.00,A,3825.58447,N,02708.09789,E,0.239,,180424,,,A*71

[2024-04-18 16:10:44.427628] $GPRMC,131235.00,A,3825.58447,N,02708.09788,E,0.155,,180424,,,A*78

[2024-04-18 16:10:45.430162] $GPRMC,131236.00,A,3825.58447,N,02708.09793,E,0.088,,180424,,,A*70

[2024-04-18 16:10:46.427951] $GPRMC,131237.00,A,3825.58444,N,02708.09792,E,0.114,,180424,,,A*77

[2024-04-18 16:10:47.429265] $GPRMC,131238.00,A,3825.58442,N,02708.09791,E,0.194,,180424,,,A*75

[2024-04-18 16:10:48.430481] $GPRMC,131239.00,A,3825.58441,N,02708.09787,E,0.184,,180424,,,A*71

[2024-04-18 16:10:49.430309] $GPRMC,131240.00,A,3825.58440,N,02708.09788,E,0.071,,180424,,,A*7A

[2024-04-18 16:10:50.431002] $GPRMC,131241.00,A,3825.58438,N,02708.09790,E,0.078,,180424,,,A*74

[2024-04-18 16:10:51.427418] $GPRMC,131242.00,A,3825.58437,N,02708.09788,E,0.148,,180424,,,A*73

[2024-04-18 16:10:52.428232] $GPRMC,131243.00,A,3825.58433,N,02708.09789,E,0.237,,180424,,,A*7C

[2024-04-18 16:10:53.429151] $GPRMC,131244.00,A,3825.58428,N,02708.09793,E,0.069,,180424,,,A*73

[2024-04-18 16:10:54.429348] $GPRMC,131245.00,A,3825.58428,N,02708.09795,E,0.062,,180424,,,A*7F

[2024-04-18 16:10:55.429314] $GPRMC,131246.00,A,3825.58430,N,02708.09799,E,0.130,,180424,,,A*7F

[2024-04-18 16:10:56.427500] $GPRMC,131247.00,A,3825.58430,N,02708.09800,E,0.137,,180424,,,A*76

[2024-04-18 16:10:57.430925] $GPRMC,131248.00,A,3825.58428,N,02708.09800,E,0.199,,180424,,,A*74

[2024-04-18 16:10:58.431431] $GPRMC,131249.00,A,3825.58425,N,02708.09800,E,0.078,,180424,,,A*76

[2024-04-18 16:10:59.429984] $GPRMC,131250.00,A,3825.58423,N,02708.09800,E,0.062,,180424,,,A*73

[2024-04-18 16:11:00.429525] $GPRMC,131251.00,A,3825.58426,N,02708.09800,E,0.045,,180424,,,A*72

[2024-04-18 16:11:01.428283] $GPRMC,131252.00,A,3825.58427,N,02708.09806,E,0.193,,180424,,,A*7C

[2024-04-18 16:11:02.430085] $GPRMC,131253.00,A,3825.58429,N,02708.09808,E,0.160,,180424,,,A*71

[2024-04-18 16:11:03.428866] $GPRMC,131254.00,A,3825.58432,N,02708.09807,E,0.172,,180424,,,A*70

[2024-04-18 16:11:04.430404] $GPRMC,131255.00,A,3825.58433,N,02708.09807,E,0.086,,180424,,,A*7A

[2024-04-18 16:11:05.429762] $GPRMC,131256.00,A,3825.58431,N,02708.09807,E,0.107,,180424,,,A*73

[2024-04-18 16:11:06.429691] $GPRMC,131257.00,A,3825.58429,N,02708.09811,E,0.015,,180424,,,A*7E

[2024-04-18 16:11:07.431209] $GPRMC,131258.00,A,3825.58426,N,02708.09816,E,0.019,,180424,,,A*75

[2024-04-18 16:11:08.428579] $GPRMC,131259.00,A,3825.58424,N,02708.09816,E,0.032,,180424,,,A*7F

[2024-04-18 16:11:09.431077] $GPRMC,131300.00,A,3825.58425,N,02708.09823,E,0.220,,180424,,,A*74

[2024-04-18 16:11:10.429823] $GPRMC,131301.00,A,3825.58424,N,02708.09828,E,0.133,,180424,,,A*7E

[2024-04-18 16:11:11.428347] $GPRMC,131302.00,A,3825.58420,N,02708.09831,E,0.063,,180424,,,A*75

[2024-04-18 16:11:12.427476] $GPRMC,131303.00,A,3825.58419,N,02708.09833,E,0.106,,180424,,,A*7E

[2024-04-18 16:11:13.428062] $GPRMC,131304.00,A,3825.58419,N,02708.09830,E,0.074,,180424,,,A*7E

