[2024-04-18 16:47:10.383037] $GPRMC,204856.00,V,,,,,,,180424,,,N*7B

[2024-04-18 16:47:11.551224] $GPRMC,204857.00,V,,,,,,,180424,,,N*7A

[2024-04-18 16:47:12.382877] $GPRMC,204858.00,V,,,,,,,180424,,,N*75

[2024-04-18 16:47:13.383908] $GPRMC,204859.00,V,,,,,,,180424,,,N*74

[2024-04-18 16:47:14.386174] $GPRMC,204900.00,V,,,,,,,180424,,,N*79

[2024-04-18 16:47:15.383404] $GPRMC,204901.00,V,,,,,,,180424,,,N*78

[2024-04-18 16:47:16.382771] $GPRMC,204902.00,V,,,,,,,180424,,,N*7B

[2024-04-18 16:47:17.563241] $GPRMC,204903.00,V,,,,,,,180424,,,N*7A

[2024-04-18 16:47:18.412993] $GPRMC,204904.00,V,,,,,,,180424,,,N*7D

[2024-04-18 16:47:19.410058] $GPRMC,204905.00,V,,,,,,,180424,,,N*7C

[2024-04-18 16:47:20.410240] $GPRMC,204906.00,V,,,,,,,180424,,,N*7F

[2024-04-18 16:47:21.410530] $GPRMC,204907.00,V,,,,,,,180424,,,N*7E

[2024-04-18 16:47:23.262012] $GPRMC,204908.00,V,,,,,,,180424,,,N*71

[2024-04-18 16:47:23.410865] $GPRMC,204909.00,V,,,,,,,180424,,,N*70

[2024-04-18 16:47:24.410399] $GPRMC,204910.00,V,,,,,,,180424,,,N*78

[2024-04-18 16:47:25.410581] $GPRMC,204911.00,V,,,,,,,180424,,,N*79

[2024-04-18 16:47:26.411156] $GPRMC,204912.00,V,,,,,,,180424,,,N*7A

[2024-04-18 16:47:27.410834] $GPRMC,204913.00,V,,,,,,,180424,,,N*7B

[2024-04-18 16:47:28.410903] $GPRMC,204914.00,V,,,,,,,180424,,,N*7C

[2024-04-18 16:47:29.412227] $GPRMC,204915.00,V,,,,,,,180424,,,N*7D

[2024-04-18 16:47:30.421327] $GPRMC,204916.00,V,,,,,,,180424,,,N*7E

[2024-04-18 16:47:31.412282] $GPRMC,204917.00,V,,,,,,,180424,,,N*7F

[2024-04-18 16:47:32.413710] $GPRMC,204918.00,V,,,,,,,180424,,,N*70

[2024-04-18 16:47:33.415030] $GPRMC,204919.00,V,,,,,,,180424,,,N*71

[2024-04-18 16:47:34.414049] $GPRMC,204920.00,V,,,,,,,180424,,,N*7B

[2024-04-18 16:47:35.414159] $GPRMC,204921.00,V,,,,,,,180424,,,N*7A

[2024-04-18 16:47:36.413534] $GPRMC,204922.00,V,,,,,,,180424,,,N*79

[2024-04-18 16:47:37.413696] $GPRMC,204923.00,V,,,,,,,180424,,,N*78

[2024-04-18 16:47:38.412781] $GPRMC,204924.00,V,,,,,,,180424,,,N*7F

[2024-04-18 16:47:39.412761] $GPRMC,204925.00,V,,,,,,,180424,,,N*7E

[2024-04-18 16:47:40.413854] $GPRMC,204926.00,V,,,,,,,180424,,,N*7D

[2024-04-18 16:47:41.412936] $GPRMC,204927.00,V,,,,,,,180424,,,N*7C

[2024-04-18 16:47:42.413043] $GPRMC,204928.00,V,,,,,,,180424,,,N*73

[2024-04-18 16:47:43.412356] $GPRMC,204929.00,V,,,,,,,180424,,,N*72

[2024-04-18 16:47:44.414721] $GPRMC,204930.00,V,,,,,,,180424,,,N*7A

[2024-04-18 16:47:45.414871] $GPRMC,204931.00,V,,,,,,,180424,,,N*7B

[2024-04-18 16:47:46.414978] $GPRMC,204932.00,V,,,,,,,180424,,,N*78

[2024-04-18 16:47:47.414740] $GPRMC,204933.00,V,,,,,,,180424,,,N*79

[2024-04-18 16:47:48.414954] $GPRMC,204934.00,V,,,,,,,180424,,,N*7E

[2024-04-18 16:47:49.413273] $GPRMC,204935.00,V,,,,,,,180424,,,N*7F

[2024-04-18 16:47:50.413151] $GPRMC,204936.00,V,,,,,,,180424,,,N*7C

[2024-04-18 16:47:51.415308] $GPRMC,204937.00,V,,,,,,,180424,,,N*7D

[2024-04-18 16:47:52.414946] $GPRMC,204938.00,V,,,,,,,180424,,,N*72

[2024-04-18 16:47:53.415497] $GPRMC,204939.00,V,,,,,,,180424,,,N*73

[2024-04-18 16:47:54.412745] $GPRMC,204940.00,V,,,,,,,180424,,,N*7D

[2024-04-18 16:47:55.412782] $GPRMC,204941.00,V,,,,,,,180424,,,N*7C

[2024-04-18 16:47:56.414609] $GPRMC,204942.00,V,,,,,,,180424,,,N*7F

[2024-04-18 16:47:57.414143] $GPRMC,204943.00,V,,,,,,,180424,,,N*7E

[2024-04-18 16:47:58.414978] $GPRMC,204944.00,V,,,,,,,180424,,,N*79

[2024-04-18 16:47:59.414026] $GPRMC,204945.00,V,,,,,,,180424,,,N*78

[2024-04-18 16:48:00.421232] $GPRMC,204946.00,V,,,,,,,180424,,,N*7B

[2024-04-18 16:48:01.417987] $GPRMC,204947.00,V,,,,,,,180424,,,N*7A

[2024-04-18 16:48:02.415126] $GPRMC,204948.00,V,,,,,,,180424,,,N*75

[2024-04-18 16:48:03.415011] $GPRMC,204949.00,V,,,,,,,180424,,,N*74

[2024-04-18 16:48:04.412922] $GPRMC,204950.00,V,,,,,,,180424,,,N*7C

[2024-04-18 16:48:05.415024] $GPRMC,204951.00,V,,,,,,,180424,,,N*7D

[2024-04-18 16:48:06.422799] $GPRMC,204952.00,V,,,,,,,180424,,,N*7E

[2024-04-18 16:48:07.418131] $GPRMC,204953.00,V,,,,,,,180424,,,N*7F

[2024-04-18 16:48:08.416997] $GPRMC,204954.00,V,,,,,,,180424,,,N*78

[2024-04-18 16:48:09.418805] $GPRMC,204955.00,V,,,,,,,180424,,,N*79

[2024-04-18 16:48:10.414727] $GPRMC,204956.00,V,,,,,,,180424,,,N*7A

[2024-04-18 16:48:11.417306] $GPRMC,204957.00,V,,,,,,,180424,,,N*7B

[2024-04-18 16:48:12.415978] $GPRMC,204958.00,V,,,,,,,180424,,,N*74

[2024-04-18 16:48:13.419772] $GPRMC,204959.00,V,,,,,,,180424,,,N*75

[2024-04-18 16:48:14.419733] $GPRMC,205000.00,V,,,,,,,180424,,,N*71

[2024-04-18 16:48:15.419841] $GPRMC,205001.00,V,,,,,,,180424,,,N*70

[2024-04-18 16:48:16.418412] $GPRMC,205002.00,V,,,,,,,180424,,,N*73

[2024-04-18 16:48:17.422555] $GPRMC,205003.00,V,,,,,,,180424,,,N*72

[2024-04-18 16:48:18.478223] $GPRMC,205004.00,V,,,,,,,180424,,,N*75

[2024-04-18 16:48:19.425054] $GPRMC,205005.00,V,,,,,,,180424,,,N*74

[2024-04-18 16:48:20.421781] $GPRMC,205006.00,V,,,,,,,180424,,,N*77

[2024-04-18 16:48:21.419138] $GPRMC,205007.00,V,,,,,,,180424,,,N*76

[2024-04-18 16:48:22.419709] $GPRMC,205008.00,V,,,,,,,180424,,,N*79

[2024-04-18 16:48:23.421437] $GPRMC,205009.00,V,,,,,,,180424,,,N*78

[2024-04-18 16:48:24.421441] $GPRMC,205010.00,V,,,,,,,180424,,,N*70

[2024-04-18 16:48:25.421542] $GPRMC,205011.00,V,,,,,,,180424,,,N*71

[2024-04-18 16:48:26.418567] $GPRMC,205012.00,V,,,,,,,180424,,,N*72

[2024-04-18 16:48:27.420546] $GPRMC,205013.00,V,,,,,,,180424,,,N*73

[2024-04-18 16:48:28.419309] $GPRMC,205014.00,V,,,,,,,180424,,,N*74

[2024-04-18 16:48:29.420320] $GPRMC,205015.00,V,,,,,,,180424,,,N*75

[2024-04-18 16:48:30.432382] $GPRMC,205016.00,V,,,,,,,180424,,,N*76

[2024-04-18 16:48:31.421293] $GPRMC,205017.00,V,,,,,,,180424,,,N*77

[2024-04-18 16:48:32.423301] $GPRMC,205018.00,V,,,,,,,180424,,,N*78

[2024-04-18 16:48:33.421567] $GPRMC,205019.00,V,,,,,,,180424,,,N*79

[2024-04-18 16:48:34.420218] $GPRMC,205020.00,V,,,,,,,180424,,,N*73

[2024-04-18 16:48:35.422158] $GPRMC,205021.00,V,,,,,,,180424,,,N*72

[2024-04-18 16:48:36.466074] $GPRMC,205022.00,A,3819.25066,N,02707.27891,E,7.450,220.88,180424,,,A*67

[2024-04-18 16:48:37.453380] $GPRMC,205023.00,A,3819.24901,N,02707.27635,E,8.175,228.35,180424,,,A*6C

[2024-04-18 16:48:38.453623] $GPRMC,205024.00,A,3819.24741,N,02707.27319,E,9.170,242.13,180424,,,A*66

[2024-04-18 16:48:39.453153] $GPRMC,205025.00,A,3819.24629,N,02707.26954,E,10.650,248.29,180424,,,A*54

[2024-04-18 16:48:40.452061] $GPRMC,205026.00,A,3819.24538,N,02707.26559,E,11.728,254.54,180424,,,A*5D

[2024-04-18 16:48:41.454521] $GPRMC,205027.00,A,3819.24419,N,02707.26101,E,12.759,257.29,180424,,,A*5B

[2024-04-18 16:48:42.450961] $GPRMC,205028.00,A,3819.24333,N,02707.25602,E,14.423,259.85,180424,,,A*5C

[2024-04-18 16:48:43.451309] $GPRMC,205029.00,A,3819.24263,N,02707.25063,E,15.656,261.54,180424,,,A*5E

[2024-04-18 16:48:44.449209] $GPRMC,205030.00,A,3819.24202,N,02707.24497,E,16.342,263.20,180424,,,A*5D

[2024-04-18 16:48:45.450631] $GPRMC,205031.00,A,3819.24150,N,02707.23901,E,17.210,263.17,180424,,,A*5E

[2024-04-18 16:48:46.456693] $GPRMC,205032.00,A,3819.24090,N,02707.23282,E,17.469,263.91,180424,,,A*56

[2024-04-18 16:48:47.455508] $GPRMC,205033.00,A,3819.24048,N,02707.22643,E,18.103,263.98,180424,,,A*55

[2024-04-18 16:48:48.450754] $GPRMC,205034.00,A,3819.23992,N,02707.21982,E,18.656,264.34,180424,,,A*5C

[2024-04-18 16:48:49.453153] $GPRMC,205035.00,A,3819.23939,N,02707.21305,E,18.895,265.06,180424,,,A*58

[2024-04-18 16:48:50.454731] $GPRMC,205036.00,A,3819.23896,N,02707.20642,E,18.364,264.83,180424,,,A*51

[2024-04-18 16:48:51.455911] $GPRMC,205037.00,A,3819.23846,N,02707.19997,E,17.857,264.08,180424,,,A*57

[2024-04-18 16:48:52.451012] $GPRMC,205038.00,A,3819.23774,N,02707.19368,E,16.881,263.44,180424,,,A*59

[2024-04-18 16:48:53.451130] $GPRMC,205039.00,A,3819.23726,N,02707.18790,E,15.377,265.53,180424,,,A*5C

[2024-04-18 16:48:54.450060] $GPRMC,205040.00,A,3819.23675,N,02707.18237,E,13.354,268.43,180424,,,A*56

[2024-04-18 16:48:55.451426] $GPRMC,205041.00,A,3819.23710,N,02707.17811,E,10.994,281.49,180424,,,A*5C

[2024-04-18 16:48:56.456149] $GPRMC,205042.00,A,3819.23820,N,02707.17511,E,9.442,294.14,180424,,,A*6C

[2024-04-18 16:48:57.449854] $GPRMC,205043.00,A,3819.23988,N,02707.17283,E,8.946,311.42,180424,,,A*65

[2024-04-18 16:48:58.449022] $GPRMC,205044.00,A,3819.24240,N,02707.17168,E,9.283,331.03,180424,,,A*68

[2024-04-18 16:48:59.454884] $GPRMC,205045.00,A,3819.24532,N,02707.17117,E,11.163,349.50,180424,,,A*5E

[2024-04-18 16:49:00.459974] $GPRMC,205046.00,A,3819.24851,N,02707.17081,E,12.552,355.18,180424,,,A*5F

[2024-04-18 16:49:01.455069] $GPRMC,205047.00,A,3819.25207,N,02707.17056,E,13.943,357.66,180424,,,A*5A

[2024-04-18 16:49:02.449754] $GPRMC,205048.00,A,3819.25601,N,02707.17040,E,15.674,358.97,180424,,,A*5C

[2024-04-18 16:49:03.449917] $GPRMC,205049.00,A,3819.26020,N,02707.17026,E,16.974,359.62,180424,,,A*5C

[2024-04-18 16:49:04.449897] $GPRMC,205050.00,A,3819.26465,N,02707.17008,E,17.894,359.26,180424,,,A*53

[2024-04-18 16:49:05.455332] $GPRMC,205051.00,A,3819.26925,N,02707.16978,E,18.309,358.58,180424,,,A*5C

[2024-04-18 16:49:06.449128] $GPRMC,205052.00,A,3819.27410,N,02707.16950,E,18.695,358.95,180424,,,A*5E

[2024-04-18 16:49:07.449983] $GPRMC,205053.00,A,3819.27900,N,02707.16927,E,18.603,359.06,180424,,,A*57

[2024-04-18 16:49:08.455406] $GPRMC,205054.00,A,3819.28393,N,02707.16910,E,18.557,359.07,180424,,,A*58

[2024-04-18 16:49:09.455872] $GPRMC,205055.00,A,3819.28885,N,02707.16895,E,18.333,359.00,180424,,,A*5A

[2024-04-18 16:49:10.449616] $GPRMC,205056.00,A,3819.29362,N,02707.16878,E,18.142,359.37,180424,,,A*59

[2024-04-18 16:49:11.450497] $GPRMC,205057.00,A,3819.29857,N,02707.16865,E,18.111,359.47,180424,,,A*58

[2024-04-18 16:49:12.454685] $GPRMC,205058.00,A,3819.30355,N,02707.16858,E,18.007,359.49,180424,,,A*50

[2024-04-18 16:49:13.455774] $GPRMC,205059.00,A,3819.30841,N,02707.16850,E,17.773,359.37,180424,,,A*55

[2024-04-18 16:49:14.449622] $GPRMC,205100.00,A,3819.31321,N,02707.16841,E,17.617,359.44,180424,,,A*53

[2024-04-18 16:49:15.455676] $GPRMC,205101.00,A,3819.31798,N,02707.16833,E,17.427,359.40,180424,,,A*54

[2024-04-18 16:49:16.450559] $GPRMC,205102.00,A,3819.32270,N,02707.16828,E,17.208,359.45,180424,,,A*53

[2024-04-18 16:49:17.457623] $GPRMC,205103.00,A,3819.32723,N,02707.16825,E,16.288,359.19,180424,,,A*5C

[2024-04-18 16:49:18.460621] $GPRMC,205104.00,A,3819.33131,N,02707.16832,E,13.466,358.96,180424,,,A*5C

[2024-04-18 16:49:19.454665] $GPRMC,205105.00,A,3819.33500,N,02707.16879,E,10.449,359.67,180424,,,A*55

[2024-04-18 16:49:20.454388] $GPRMC,205106.00,A,3819.33802,N,02707.16909,E,9.453,359.90,180424,,,A*64

[2024-04-18 16:49:21.459332] $GPRMC,205107.00,A,3819.34108,N,02707.16931,E,10.012,359.35,180424,,,A*5C

[2024-04-18 16:49:22.460241] $GPRMC,205108.00,A,3819.34394,N,02707.16931,E,10.381,358.57,180424,,,A*58

[2024-04-18 16:49:23.455245] $GPRMC,205109.00,A,3819.34695,N,02707.16927,E,10.862,358.33,180424,,,A*5E

[2024-04-18 16:49:24.457977] $GPRMC,205110.00,A,3819.35030,N,02707.16917,E,12.224,358.65,180424,,,A*54

[2024-04-18 16:49:25.456958] $GPRMC,205111.00,A,3819.35399,N,02707.16913,E,13.495,359.08,180424,,,A*56

[2024-04-18 16:49:26.455816] $GPRMC,205112.00,A,3819.35796,N,02707.16910,E,14.654,358.96,180424,,,A*53

[2024-04-18 16:49:27.455680] $GPRMC,205113.00,A,3819.36224,N,02707.16907,E,15.097,358.48,180424,,,A*50

[2024-04-18 16:49:28.454767] $GPRMC,205114.00,A,3819.36654,N,02707.16906,E,14.931,359.13,180424,,,A*5E

[2024-04-18 16:49:29.455396] $GPRMC,205115.00,A,3819.37078,N,02707.16907,E,14.799,359.64,180424,,,A*5B

[2024-04-18 16:49:30.467764] $GPRMC,205116.00,A,3819.37491,N,02707.16905,E,14.980,359.48,180424,,,A*51

[2024-04-18 16:49:31.459289] $GPRMC,205117.00,A,3819.37918,N,02707.16908,E,15.195,359.82,180424,,,A*5A

[2024-04-18 16:49:32.454900] $GPRMC,205118.00,A,3819.38346,N,02707.16905,E,15.492,0.04,180424,,,A*55

[2024-04-18 16:49:33.454990] $GPRMC,205119.00,A,3819.38769,N,02707.16905,E,15.201,0.02,180424,,,A*57

[2024-04-18 16:49:34.459104] $GPRMC,205120.00,A,3819.39167,N,02707.16899,E,14.413,0.11,180424,,,A*56

[2024-04-18 16:49:35.456857] $GPRMC,205121.00,A,3819.39562,N,02707.16910,E,13.671,0.37,180424,,,A*53

[2024-04-18 16:49:36.456498] $GPRMC,205122.00,A,3819.39904,N,02707.16911,E,12.333,0.58,180424,,,A*56

[2024-04-18 16:49:37.453672] $GPRMC,205123.00,A,3819.40209,N,02707.16917,E,10.781,2.21,180424,,,A*5A

[2024-04-18 16:49:38.453541] $GPRMC,205124.00,A,3819.40501,N,02707.16936,E,9.789,3.98,180424,,,A*62

[2024-04-18 16:49:39.457873] $GPRMC,205125.00,A,3819.40797,N,02707.16958,E,10.139,4.17,180424,,,A*53

[2024-04-18 16:49:40.456017] $GPRMC,205126.00,A,3819.41093,N,02707.16975,E,10.383,4.00,180424,,,A*58

[2024-04-18 16:49:41.450979] $GPRMC,205127.00,A,3819.41369,N,02707.16992,E,9.248,3.60,180424,,,A*69

[2024-04-18 16:49:42.453814] $GPRMC,205128.00,A,3819.41655,N,02707.17011,E,9.670,4.17,180424,,,A*67

[2024-04-18 16:49:43.459827] $GPRMC,205129.00,A,3819.41944,N,02707.17041,E,9.857,4.25,180424,,,A*66

[2024-04-18 16:49:44.456518] $GPRMC,205130.00,A,3819.42212,N,02707.17048,E,8.527,3.45,180424,,,A*66

[2024-04-18 16:49:45.455367] $GPRMC,205131.00,A,3819.42448,N,02707.17099,E,7.361,8.40,180424,,,A*67

[2024-04-18 16:49:46.455612] $GPRMC,205132.00,A,3819.42602,N,02707.17150,E,4.504,12.95,180424,,,A*59

[2024-04-18 16:49:47.454551] $GPRMC,205133.00,A,3819.42720,N,02707.17208,E,4.287,17.83,180424,,,A*59

[2024-04-18 16:49:48.453721] $GPRMC,205134.00,A,3819.42801,N,02707.17292,E,4.214,26.53,180424,,,A*54

[2024-04-18 16:49:49.453752] $GPRMC,205135.00,A,3819.42879,N,02707.17417,E,4.662,34.05,180424,,,A*54

[2024-04-18 16:49:50.452996] $GPRMC,205136.00,A,3819.42933,N,02707.17570,E,5.098,50.12,180424,,,A*5E

[2024-04-18 16:49:51.452245] $GPRMC,205137.00,A,3819.42992,N,02707.17767,E,6.206,60.64,180424,,,A*54

[2024-04-18 16:49:52.456826] $GPRMC,205138.00,A,3819.43063,N,02707.18015,E,7.341,69.37,180424,,,A*5C

[2024-04-18 16:49:53.457054] $GPRMC,205139.00,A,3819.43142,N,02707.18307,E,8.741,70.98,180424,,,A*59

[2024-04-18 16:49:54.451817] $GPRMC,205140.00,A,3819.43190,N,02707.18609,E,8.588,74.32,180424,,,A*50

[2024-04-18 16:49:55.456921] $GPRMC,205141.00,A,3819.43236,N,02707.18926,E,8.492,80.62,180424,,,A*58

[2024-04-18 16:49:56.454513] $GPRMC,205142.00,A,3819.43308,N,02707.19247,E,9.160,77.00,180424,,,A*5F

[2024-04-18 16:49:57.455313] $GPRMC,205143.00,A,3819.43355,N,02707.19490,E,6.431,75.90,180424,,,A*5F

[2024-04-18 16:49:58.453300] $GPRMC,205144.00,A,3819.43406,N,02707.19709,E,6.686,74.07,180424,,,A*5B

[2024-04-18 16:49:59.454595] $GPRMC,205145.00,A,3819.43449,N,02707.19947,E,6.246,76.79,180424,,,A*56

[2024-04-18 16:50:00.459118] $GPRMC,205146.00,A,3819.43498,N,02707.20194,E,7.075,78.34,180424,,,A*51

[2024-04-18 16:50:01.459605] $GPRMC,205147.00,A,3819.43584,N,02707.20464,E,8.414,74.40,180424,,,A*55

[2024-04-18 16:50:02.457343] $GPRMC,205148.00,A,3819.43649,N,02707.20758,E,7.787,78.05,180424,,,A*5F

[2024-04-18 16:50:03.454577] $GPRMC,205149.00,A,3819.43704,N,02707.21039,E,7.978,80.30,180424,,,A*58

[2024-04-18 16:50:04.454204] $GPRMC,205150.00,A,3819.43828,N,02707.21392,E,9.172,78.68,180424,,,A*55

[2024-04-18 16:50:05.457613] $GPRMC,205151.00,A,3819.43923,N,02707.21734,E,8.606,78.26,180424,,,A*59

[2024-04-18 16:50:06.450434] $GPRMC,205152.00,A,3819.43964,N,02707.21992,E,6.631,79.11,180424,,,A*54

[2024-04-18 16:50:07.454583] $GPRMC,205153.00,A,3819.44065,N,02707.22185,E,5.850,69.61,180424,,,A*5B

[2024-04-18 16:50:08.454349] $GPRMC,205154.00,A,3819.44135,N,02707.22302,E,2.709,68.64,180424,,,A*55

[2024-04-18 16:50:09.454374] $GPRMC,205155.00,A,3819.44309,N,02707.22366,E,5.797,10.98,180424,,,A*57

[2024-04-18 16:50:10.453862] $GPRMC,205156.00,A,3819.44563,N,02707.22378,E,7.674,4.58,180424,,,A*66

[2024-04-18 16:50:11.453922] $GPRMC,205157.00,A,3819.44888,N,02707.22372,E,8.943,358.67,180424,,,A*67

[2024-04-18 16:50:12.452260] $GPRMC,205158.00,A,3819.45231,N,02707.22347,E,8.842,354.66,180424,,,A*6A

[2024-04-18 16:50:13.453587] $GPRMC,205159.00,A,3819.45554,N,02707.22320,E,8.993,352.22,180424,,,A*65

[2024-04-18 16:50:14.457762] $GPRMC,205200.00,A,3819.45872,N,02707.22285,E,9.287,351.47,180424,,,A*62

[2024-04-18 16:50:15.458636] $GPRMC,205201.00,A,3819.46123,N,02707.22248,E,8.329,350.11,180424,,,A*6A

[2024-04-18 16:50:16.454830] $GPRMC,205202.00,A,3819.46362,N,02707.22226,E,6.311,351.50,180424,,,A*67

[2024-04-18 16:50:17.465649] $GPRMC,205203.00,A,3819.46494,N,02707.22215,E,3.879,357.34,180424,,,A*6C

[2024-04-18 16:50:18.460089] $GPRMC,205204.00,A,3819.46629,N,02707.22249,E,3.301,10.34,180424,,,A*52

[2024-04-18 16:50:19.456126] $GPRMC,205205.00,A,3819.46741,N,02707.22326,E,3.843,25.06,180424,,,A*5E

[2024-04-18 16:50:20.454888] $GPRMC,205206.00,A,3819.46796,N,02707.22477,E,4.856,48.17,180424,,,A*5C

[2024-04-18 16:50:21.454799] $GPRMC,205207.00,A,3819.46820,N,02707.22655,E,5.077,73.15,180424,,,A*5D

[2024-04-18 16:50:22.452689] $GPRMC,205208.00,A,3819.46878,N,02707.22881,E,6.148,79.01,180424,,,A*59

[2024-04-18 16:50:23.458381] $GPRMC,205209.00,A,3819.46902,N,02707.23131,E,7.500,85.09,180424,,,A*55

[2024-04-18 16:50:24.458538] $GPRMC,205210.00,A,3819.46876,N,02707.23444,E,8.822,93.30,180424,,,A*57

[2024-04-18 16:50:25.454381] $GPRMC,205211.00,A,3819.46854,N,02707.23780,E,9.228,94.73,180424,,,A*5C

[2024-04-18 16:50:26.453653] $GPRMC,205212.00,A,3819.46876,N,02707.24147,E,10.125,90.58,180424,,,A*6E

[2024-04-18 16:50:27.458370] $GPRMC,205213.00,A,3819.46908,N,02707.24541,E,10.775,87.34,180424,,,A*6A

[2024-04-18 16:50:28.458216] $GPRMC,205214.00,A,3819.46949,N,02707.24948,E,11.155,86.41,180424,,,A*6B

[2024-04-18 16:50:29.457355] $GPRMC,205215.00,A,3819.47011,N,02707.25371,E,12.014,81.81,180424,,,A*62

[2024-04-18 16:50:30.456525] $GPRMC,205216.00,A,3819.47060,N,02707.25795,E,11.754,83.31,180424,,,A*60

[2024-04-18 16:50:31.455161] $GPRMC,205217.00,A,3819.47072,N,02707.26219,E,11.821,84.27,180424,,,A*6D

[2024-04-18 16:50:32.455821] $GPRMC,205218.00,A,3819.47072,N,02707.26647,E,11.733,89.22,180424,,,A*69

[2024-04-18 16:50:33.458778] $GPRMC,205219.00,A,3819.47099,N,02707.27071,E,11.972,86.40,180424,,,A*6F

[2024-04-18 16:50:34.452419] $GPRMC,205220.00,A,3819.47134,N,02707.27497,E,11.867,85.08,180424,,,A*65

[2024-04-18 16:50:35.453702] $GPRMC,205221.00,A,3819.47169,N,02707.27921,E,11.935,83.78,180424,,,A*6B

[2024-04-18 16:50:36.461727] $GPRMC,205222.00,A,3819.47241,N,02707.28365,E,12.014,82.97,180424,,,A*6D

[2024-04-18 16:50:37.459533] $GPRMC,205223.00,A,3819.47313,N,02707.28783,E,11.494,79.61,180424,,,A*64

[2024-04-18 16:50:38.459349] $GPRMC,205224.00,A,3819.47383,N,02707.29115,E,8.218,79.71,180424,,,A*59

[2024-04-18 16:50:39.456148] $GPRMC,205225.00,A,3819.47403,N,02707.29340,E,5.112,82.44,180424,,,A*53

[2024-04-18 16:50:40.455391] $GPRMC,205226.00,A,3819.47414,N,02707.29529,E,5.249,84.81,180424,,,A*5D

[2024-04-18 16:50:41.455714] $GPRMC,205227.00,A,3819.47461,N,02707.29738,E,5.680,83.56,180424,,,A*50

[2024-04-18 16:50:42.466368] $GPRMC,205228.00,A,3819.47573,N,02707.29974,E,5.396,83.81,180424,,,A*53

[2024-04-18 16:50:43.461396] $GPRMC,205229.00,A,3819.47692,N,02707.30196,E,4.638,85.86,180424,,,A*53

[2024-04-18 16:50:44.459655] $GPRMC,205230.00,A,3819.47675,N,02707.30361,E,4.680,100.76,180424,,,A*68

[2024-04-18 16:50:45.466517] $GPRMC,205231.00,A,3819.47600,N,02707.30531,E,5.828,119.28,180424,,,A*66

[2024-04-18 16:50:46.466091] $GPRMC,205232.00,A,3819.47462,N,02707.30704,E,7.456,138.36,180424,,,A*6C

[2024-04-18 16:50:47.460688] $GPRMC,205233.00,A,3819.47279,N,02707.30872,E,8.889,144.76,180424,,,A*61

[2024-04-18 16:50:48.466294] $GPRMC,205234.00,A,3819.47034,N,02707.31052,E,10.778,149.15,180424,,,A*56

[2024-04-18 16:50:49.460139] $GPRMC,205235.00,A,3819.46763,N,02707.31256,E,12.045,149.22,180424,,,A*5A